[
  {
    "name": "NO PULP",
    "cuisine": [
      "Juice, Smoothies, Fruit Salads"
    ],
    "category": "restaurants",
    "price_range": "$$",
    "address": "193 ORCHARD STREET",
    "city": "New York",
    "state": "NY",
    "neighborhood": "Greenwich Village",
    "latitude": 40.722216005782,
    "longitude": -73.988130779424,
    "phone": "9174090003",
    "grade": null,
    "tags": [],
    "rating": 7,
    "rating_count": 468
  },
  {
    "name": "THE GARRETT",
    "cuisine": [
      "American"
    ],
    "category": "restaurants",
    "price_range": "$$",
    "address": "296 BLEECKER STREET",
    "city": "New York",
    "state": "NY",
    "neighborhood": "Upper West Side",
    "latitude": 40.732476494773,
    "longitude": -74.003723686622,
    "phone": "2126756157",
    "grade": "A",
    "tags": [
      "clean",
      "highly-rated"
    ],
    "rating": 9.4,
    "rating_count": 48
  },
  {
    "name": "FRESH PICK",
    "cuisine": [
      "Juice, Smoothies, Fruit Salads"
    ],
    "category": "restaurants",
    "price_range": "$$",
    "address": "25-06 QUEENS PLAZA SOUTH",
    "city": "New York",
    "state": "NY",
    "neighborhood": "Flushing",
    "latitude": 40.750370611597,
    "longitude": -73.940318323348,
    "phone": "7187291459",
    "grade": "A",
    "tags": [
      "clean",
      "highly-rated"
    ],
    "rating": 8.5,
    "rating_count": 376
  },
  {
    "name": "GONG CHA",
    "cuisine": [
      "Coffee/Tea"
    ],
    "category": "coffee_tea",
    "price_range": "$$",
    "address": "90-15 QUEENS BOULEVARD",
    "city": "New York",
    "state": "NY",
    "neighborhood": "Long Island City",
    "latitude": 40.733840182011,
    "longitude": -73.871577033806,
    "phone": "6462673807",
    "grade": null,
    "tags": [],
    "rating": 7.7,
    "rating_count": 480
  },
  {
    "name": "JACKSON HOLE",
    "cuisine": [
      "Burgers",
      "American"
    ],
    "category": "restaurants",
    "price_range": "$",
    "address": "521 THIRD AVENUE",
    "city": "New York",
    "state": "NY",
    "neighborhood": "Lower East Side",
    "latitude": 40.746222915383,
    "longitude": -73.977739867544,
    "phone": "2126793264",
    "grade": null,
    "tags": [
      "budget-friendly",
      "casual"
    ],
    "rating": 5,
    "rating_count": 279
  },
  {
    "name": "KUSINA PINOY BISTRO",
    "cuisine": [
      "Filipino",
      "Asian"
    ],
    "category": "restaurants",
    "price_range": "$$",
    "address": "69-16 ROOSEVELT AVENUE",
    "city": "New York",
    "state": "NY",
    "neighborhood": "Long Island City",
    "latitude": 40.746342701312,
    "longitude": -73.896083081162,
    "phone": "3479249977",
    "grade": null,
    "tags": [],
    "rating": 6.4,
    "rating_count": 209
  },
  {
    "name": "CORNER CAFE",
    "cuisine": [
      "Eastern European"
    ],
    "category": "restaurants",
    "price_range": "$$",
    "address": "628 MIDLAND AVENUE",
    "city": "New York",
    "state": "NY",
    "neighborhood": "Tottenville",
    "latitude": 40.57131063287,
    "longitude": -74.091290132228,
    "phone": "3479649710",
    "grade": "Z",
    "tags": [],
    "rating": 7,
    "rating_count": 387
  },
  {
    "name": "CASA TEVERE",
    "cuisine": [
      "Kosher",
      "Jewish"
    ],
    "category": "restaurants",
    "price_range": "$$",
    "address": "1207 LEXINGTON AVENUE",
    "city": "New York",
    "state": "NY",
    "neighborhood": "Greenwich Village",
    "latitude": 40.776741689643,
    "longitude": -73.957575081213,
    "phone": "6467337038",
    "grade": "A",
    "tags": [
      "clean",
      "highly-rated"
    ],
    "rating": 9.4,
    "rating_count": 57
  },
  {
    "name": "TEABYDO",
    "cuisine": [
      "Coffee/Tea"
    ],
    "category": "coffee_tea",
    "price_range": "$$",
    "address": "38-03 MAIN STREET",
    "city": "New York",
    "state": "NY",
    "neighborhood": "Astoria",
    "latitude": 40.760705045518,
    "longitude": -73.830687777806,
    "phone": "9179169993",
    "grade": "Z",
    "tags": [],
    "rating": 6.5,
    "rating_count": 416
  },
  {
    "name": "BALTHAZAR BAKERY",
    "cuisine": [
      "Bakery Products/Desserts"
    ],
    "category": "bakeries",
    "price_range": "$$",
    "address": "80 SPRING STREET",
    "city": "New York",
    "state": "NY",
    "neighborhood": "Financial District",
    "latitude": 40.72270242812,
    "longitude": -73.998109569261,
    "phone": "2129651785",
    "grade": "A",
    "tags": [
      "clean",
      "highly-rated"
    ],
    "rating": 8.8,
    "rating_count": 124
  },
  {
    "name": "MURRAY HILL DINER",
    "cuisine": [
      "American"
    ],
    "category": "restaurants",
    "price_range": "$$",
    "address": "222 LEXINGTON AVENUE",
    "city": "New York",
    "state": "NY",
    "neighborhood": "Chelsea",
    "latitude": 40.745891233483,
    "longitude": -73.980103842959,
    "phone": "2126866667",
    "grade": null,
    "tags": [],
    "rating": 8.1,
    "rating_count": 294
  },
  {
    "name": "KENNEDYâ€™S CHICKEN & PIZZA",
    "cuisine": [
      "Other"
    ],
    "category": "restaurants",
    "price_range": "$$",
    "address": "2273 CROTONA AVENUE",
    "city": "New York",
    "state": "NY",
    "neighborhood": "Fordham",
    "latitude": 40.851412230587,
    "longitude": -73.885077803028,
    "phone": "3478921929",
    "grade": null,
    "tags": [],
    "rating": 7.1,
    "rating_count": 46
  },
  {
    "name": "THE MEADOWS",
    "cuisine": [
      "Not Listed/Not Applicable"
    ],
    "category": "restaurants",
    "price_range": "$$",
    "address": "17 MEADOW STREET",
    "city": "New York",
    "state": "NY",
    "neighborhood": "Bushwick",
    "latitude": 40.710662796282,
    "longitude": -73.936534158802,
    "phone": "3476146886",
    "grade": null,
    "tags": [],
    "rating": 5,
    "rating_count": 177
  },
  {
    "name": "FLORAL",
    "cuisine": [
      "Chinese/Japanese"
    ],
    "category": "restaurants",
    "price_range": "$$$",
    "address": "63 COOPER SQUARE",
    "city": "New York",
    "state": "NY",
    "neighborhood": "Chelsea",
    "latitude": 40.729072630483,
    "longitude": -73.990233039889,
    "phone": "9173285777",
    "grade": null,
    "tags": [
      "fresh-fish"
    ],
    "rating": 7.5,
    "rating_count": 23
  },
  {
    "name": "MEDITERRANEO",
    "cuisine": [
      "Italian"
    ],
    "category": "restaurants",
    "price_range": "$$$",
    "address": "1260 2 AVENUE",
    "city": "New York",
    "state": "NY",
    "neighborhood": "Upper West Side",
    "latitude": 40.765072225292,
    "longitude": -73.961069799916,
    "phone": "2127347407",
    "grade": null,
    "tags": [],
    "rating": 7.5,
    "rating_count": 460
  },
  {
    "name": "39 PRINCE CAFE",
    "cuisine": [
      "Chinese",
      "Asian"
    ],
    "category": "restaurants",
    "price_range": "$$",
    "address": "39-07 PRINCE STREET",
    "city": "New York",
    "state": "NY",
    "neighborhood": "Astoria",
    "latitude": 40.759535331184,
    "longitude": -73.832253763433,
    "phone": "6464095659",
    "grade": null,
    "tags": [],
    "rating": 6.5,
    "rating_count": 481
  },
  {
    "name": "TROPICAL JADE 4",
    "cuisine": [
      "Caribbean",
      "Latin"
    ],
    "category": "restaurants",
    "price_range": "$$",
    "address": "112-16 LIBERTY AVENUE",
    "city": "New York",
    "state": "NY",
    "neighborhood": "Forest Hills",
    "latitude": 40.685146032802,
    "longitude": -73.830058277889,
    "phone": "9175004004",
    "grade": null,
    "tags": [],
    "rating": 6.3,
    "rating_count": 117
  },
  {
    "name": "SWEET BASIL THAI CUISINE",
    "cuisine": [
      "Thai",
      "Asian"
    ],
    "category": "restaurants",
    "price_range": "$$",
    "address": "39-28 61 STREET",
    "city": "New York",
    "state": "NY",
    "neighborhood": "Astoria",
    "latitude": 40.746455813574,
    "longitude": -73.903012156992,
    "phone": "7182050080",
    "grade": "A",
    "tags": [
      "clean",
      "highly-rated"
    ],
    "rating": 8.1,
    "rating_count": 428
  },
  {
    "name": "DRAGON 88",
    "cuisine": [
      "Chinese",
      "Asian"
    ],
    "category": "restaurants",
    "price_range": "$$",
    "address": "1680 1 AVENUE",
    "city": "New York",
    "state": "NY",
    "neighborhood": "Lower East Side",
    "latitude": 40.77787710694,
    "longitude": -73.948627056367,
    "phone": "9173610786",
    "grade": "Z",
    "tags": [],
    "rating": 7,
    "rating_count": 321
  },
  {
    "name": "TACO MAHAL",
    "cuisine": [
      "Indian",
      "Asian"
    ],
    "category": "restaurants",
    "price_range": "$$",
    "address": "653 9 AVENUE",
    "city": "New York",
    "state": "NY",
    "neighborhood": "Harlem",
    "latitude": 40.760689606596,
    "longitude": -73.99099004469,
    "phone": "6464905782",
    "grade": null,
    "tags": [],
    "rating": 7,
    "rating_count": 91
  },
  {
    "name": "GUS'S PIZZERIA",
    "cuisine": [
      "Pizza",
      "Italian"
    ],
    "category": "restaurants",
    "price_range": "$",
    "address": "1750 BATH AVENUE",
    "city": "New York",
    "state": "NY",
    "neighborhood": "Park Slope",
    "latitude": 40.604256852887,
    "longitude": -74.006806394985,
    "phone": "7182363339",
    "grade": null,
    "tags": [
      "budget-friendly",
      "casual"
    ],
    "rating": 7.1,
    "rating_count": 460
  },
  {
    "name": "SARKU JAPAN",
    "cuisine": [
      "Japanese",
      "Asian"
    ],
    "category": "restaurants",
    "price_range": "$$$",
    "address": "155-33 JAMAICA AVENUE",
    "city": "New York",
    "state": "NY",
    "neighborhood": "Forest Hills",
    "latitude": 40.703249671784,
    "longitude": -73.80052403215,
    "phone": "9175435184",
    "grade": "Z",
    "tags": [
      "fresh-fish"
    ],
    "rating": 5.1,
    "rating_count": 77
  },
  {
    "name": "MANGO TREE THAI BISTRO",
    "cuisine": [
      "Chinese",
      "Asian"
    ],
    "category": "restaurants",
    "price_range": "$$",
    "address": "519 3 AVENUE",
    "city": "New York",
    "state": "NY",
    "neighborhood": "Lower East Side",
    "latitude": 40.746165283781,
    "longitude": -73.977783194489,
    "phone": "6464272799",
    "grade": null,
    "tags": [],
    "rating": 5.1,
    "rating_count": 319
  },
  {
    "name": "MAYA",
    "cuisine": [
      "Mexican",
      "Latin"
    ],
    "category": "restaurants",
    "price_range": "$$",
    "address": "1191 1 AVENUE",
    "city": "New York",
    "state": "NY",
    "neighborhood": "SoHo",
    "latitude": 40.763051532927,
    "longitude": -73.959479025574,
    "phone": "2125851818",
    "grade": null,
    "tags": [],
    "rating": 7.5,
    "rating_count": 107
  },
  {
    "name": "YVES",
    "cuisine": [
      "French",
      "European"
    ],
    "category": "restaurants",
    "price_range": "$$$$",
    "address": "385 GREENWICH STREET",
    "city": "New York",
    "state": "NY",
    "neighborhood": "Upper West Side",
    "latitude": 40.720204255897,
    "longitude": -74.010155271571,
    "phone": "2124313385",
    "grade": "A",
    "tags": [
      "clean",
      "highly-rated",
      "special-occasion",
      "upscale"
    ],
    "rating": 9,
    "rating_count": 401
  },
  {
    "name": "AUTHENTIC SZECHUAN",
    "cuisine": [
      "Chinese",
      "Asian"
    ],
    "category": "restaurants",
    "price_range": "$$",
    "address": "384 5 AVENUE",
    "city": "New York",
    "state": "NY",
    "neighborhood": "Williamsburg",
    "latitude": 40.671077752241,
    "longitude": -73.984726085,
    "phone": "7187882299",
    "grade": null,
    "tags": [],
    "rating": 7.7,
    "rating_count": 345
  },
  {
    "name": "EL RODEO",
    "cuisine": [
      "Latin American"
    ],
    "category": "restaurants",
    "price_range": "$$",
    "address": "45-50 46 STREET",
    "city": "New York",
    "state": "NY",
    "neighborhood": "Flushing",
    "latitude": 40.742016166091,
    "longitude": -73.918940423262,
    "phone": "3472039064",
    "grade": null,
    "tags": [],
    "rating": 8,
    "rating_count": 242
  },
  {
    "name": "VIAND COFFEE SHOP",
    "cuisine": [
      "Greek",
      "Mediterranean"
    ],
    "category": "restaurants",
    "price_range": "$$",
    "address": "673 MADISON AVENUE",
    "city": "New York",
    "state": "NY",
    "neighborhood": "Financial District",
    "latitude": 40.764924053413,
    "longitude": -73.970416146817,
    "phone": "2127516622",
    "grade": "A",
    "tags": [
      "clean",
      "highly-rated"
    ],
    "rating": 8.7,
    "rating_count": 115
  },
  {
    "name": "VEGGIE CASTLE",
    "cuisine": [
      "Vegetarian",
      "Healthy"
    ],
    "category": "restaurants",
    "price_range": "$$",
    "address": "132-09 LIBERTY AVENUE",
    "city": "New York",
    "state": "NY",
    "neighborhood": "Astoria",
    "latitude": 40.690659999156,
    "longitude": -73.813957985415,
    "phone": "7186418342",
    "grade": "A",
    "tags": [
      "clean",
      "highly-rated",
      "vegetarian-friendly"
    ],
    "rating": 8.8,
    "rating_count": 125
  },
  {
    "name": "WEN ZHOU FOOD INC.",
    "cuisine": [
      "Chinese",
      "Asian"
    ],
    "category": "restaurants",
    "price_range": "$$",
    "address": "41-36 MAIN STREET",
    "city": "New York",
    "state": "NY",
    "neighborhood": "Jackson Heights",
    "latitude": 40.75720025137,
    "longitude": -73.829018268545,
    "phone": "3473996198",
    "grade": null,
    "tags": [],
    "rating": 5.1,
    "rating_count": 184
  },
  {
    "name": "ANGELINA BAKERY",
    "cuisine": [
      "Bakery Products/Desserts"
    ],
    "category": "bakeries",
    "price_range": "$$",
    "address": "1649 3 AVENUE",
    "city": "New York",
    "state": "NY",
    "neighborhood": "East Village",
    "latitude": 40.782843416016,
    "longitude": -73.951028111856,
    "phone": "6463701394",
    "grade": "N",
    "tags": [],
    "rating": 6.1,
    "rating_count": 390
  },
  {
    "name": "NATTO HIBACHI & SUSHI",
    "cuisine": [
      "Japanese",
      "Asian"
    ],
    "category": "restaurants",
    "price_range": "$$$",
    "address": "296 5 AVENUE",
    "city": "New York",
    "state": "NY",
    "neighborhood": "Greenpoint",
    "latitude": 40.673674001648,
    "longitude": -73.982558865107,
    "phone": "7187880083",
    "grade": null,
    "tags": [
      "fresh-fish"
    ],
    "rating": 6.4,
    "rating_count": 102
  },
  {
    "name": "NO. 1 CHINESE RESTAURANT",
    "cuisine": [
      "Chinese",
      "Asian"
    ],
    "category": "restaurants",
    "price_range": "$$",
    "address": "7 WEST TREMONT AVENUE",
    "city": "New York",
    "state": "NY",
    "neighborhood": "Riverdale",
    "latitude": 40.851947421727,
    "longitude": -73.90962451923,
    "phone": "7182945294",
    "grade": null,
    "tags": [],
    "rating": 7.8,
    "rating_count": 415
  },
  {
    "name": "LECHONERA TROPICAL & GRILL",
    "cuisine": [
      "Latin American"
    ],
    "category": "restaurants",
    "price_range": "$$",
    "address": "172 EAST  103 STREET",
    "city": "New York",
    "state": "NY",
    "neighborhood": "East Village",
    "latitude": 40.789966950447,
    "longitude": -73.946884242563,
    "phone": "2127221344",
    "grade": null,
    "tags": [],
    "rating": 8.3,
    "rating_count": 264
  },
  {
    "name": "SEA SALT",
    "cuisine": [
      "Mediterranean"
    ],
    "category": "restaurants",
    "price_range": "$$",
    "address": "1123 1 AVENUE",
    "city": "New York",
    "state": "NY",
    "neighborhood": "Chelsea",
    "latitude": 40.761191054722,
    "longitude": -73.960826611745,
    "phone": "4046411973",
    "grade": "Z",
    "tags": [],
    "rating": 6.9,
    "rating_count": 416
  },
  {
    "name": "SUNDAES AND CONES",
    "cuisine": [
      "Frozen Desserts"
    ],
    "category": "dessert",
    "price_range": "$$",
    "address": "95 EAST   10 STREET",
    "city": "New York",
    "state": "NY",
    "neighborhood": "Greenwich Village",
    "latitude": 40.730870377161,
    "longitude": -73.989392079643,
    "phone": "2129799398",
    "grade": "A",
    "tags": [
      "clean",
      "highly-rated"
    ],
    "rating": 8.7,
    "rating_count": 288
  },
  {
    "name": "AVANTI'S PIZZERIA",
    "cuisine": [
      "Pizza",
      "Italian"
    ],
    "category": "restaurants",
    "price_range": "$",
    "address": "170 NEW DORP LANE",
    "city": "New York",
    "state": "NY",
    "neighborhood": "Stapleton",
    "latitude": 40.573295614355,
    "longitude": -74.115089771533,
    "phone": "7186680490",
    "grade": null,
    "tags": [
      "budget-friendly",
      "casual"
    ],
    "rating": 7.5,
    "rating_count": 222
  },
  {
    "name": "BEST CARIBBEAN RESTAURANT & GRILL",
    "cuisine": [
      "Caribbean",
      "Latin"
    ],
    "category": "restaurants",
    "price_range": "$$",
    "address": "91-02 ROCKAWAY BEACH BOULEVARD",
    "city": "New York",
    "state": "NY",
    "neighborhood": "Jackson Heights",
    "latitude": 40.586727195859,
    "longitude": -73.81477788889,
    "phone": "3477277134",
    "grade": null,
    "tags": [],
    "rating": 6.8,
    "rating_count": 321
  },
  {
    "name": "HORSES & DIVORCES",
    "cuisine": [
      "American"
    ],
    "category": "restaurants",
    "price_range": "$$",
    "address": "285 BEDFORD AVENUE",
    "city": "New York",
    "state": "NY",
    "neighborhood": "DUMBO",
    "latitude": 40.714137797303,
    "longitude": -73.961507280581,
    "phone": "9173192199",
    "grade": null,
    "tags": [],
    "rating": 5.5,
    "rating_count": 44
  },
  {
    "name": "CHOP GUITAR",
    "cuisine": [
      "Chinese",
      "Asian"
    ],
    "category": "restaurants",
    "price_range": "$$",
    "address": "142-38 ROOSEVELT AVENUE",
    "city": "New York",
    "state": "NY",
    "neighborhood": "Long Island City",
    "latitude": 40.760672792002,
    "longitude": -73.825645020061,
    "phone": "7189088777",
    "grade": null,
    "tags": [],
    "rating": 5.3,
    "rating_count": 184
  },
  {
    "name": "LILIA",
    "cuisine": [
      "Italian"
    ],
    "category": "restaurants",
    "price_range": "$$$",
    "address": "567 UNION AVENUE",
    "city": "New York",
    "state": "NY",
    "neighborhood": "DUMBO",
    "latitude": 40.717480166571,
    "longitude": -73.95219462036,
    "phone": "7185763095",
    "grade": "A",
    "tags": [
      "clean",
      "highly-rated"
    ],
    "rating": 9.1,
    "rating_count": 164
  },
  {
    "name": "WOODBINES",
    "cuisine": [
      "Irish",
      "European"
    ],
    "category": "restaurants",
    "price_range": "$$",
    "address": "47-10 VERNON BOULEVARD",
    "city": "New York",
    "state": "NY",
    "neighborhood": "Long Island City",
    "latitude": 40.745142368982,
    "longitude": -73.953300675297,
    "phone": "9296180510",
    "grade": "A",
    "tags": [
      "clean",
      "highly-rated"
    ],
    "rating": 8.8,
    "rating_count": 484
  },
  {
    "name": "T-MEZCAL",
    "cuisine": [
      "Mexican",
      "Latin"
    ],
    "category": "restaurants",
    "price_range": "$$",
    "address": "88-08 ROOSEVELT AVENUE",
    "city": "New York",
    "state": "NY",
    "neighborhood": "Astoria",
    "latitude": 40.748254339336,
    "longitude": -73.877879475337,
    "phone": "9172158558",
    "grade": "A",
    "tags": [
      "clean",
      "highly-rated"
    ],
    "rating": 8.3,
    "rating_count": 129
  },
  {
    "name": "THE CONNECT BAR",
    "cuisine": [
      "Other"
    ],
    "category": "restaurants",
    "price_range": "$$",
    "address": "160-02 JAMAICA AVENUE",
    "city": "New York",
    "state": "NY",
    "neighborhood": "Flushing",
    "latitude": 40.703776829095,
    "longitude": -73.799043712501,
    "phone": "7187553394",
    "grade": "A",
    "tags": [
      "clean",
      "highly-rated"
    ],
    "rating": 8.6,
    "rating_count": 379
  },
  {
    "name": "THE DUTCH",
    "cuisine": [
      "American"
    ],
    "category": "restaurants",
    "price_range": "$$",
    "address": "131 SULLIVAN STREET",
    "city": "New York",
    "state": "NY",
    "neighborhood": "Financial District",
    "latitude": 40.726649396842,
    "longitude": -74.002204431024,
    "phone": "3479876748",
    "grade": null,
    "tags": [],
    "rating": 6.7,
    "rating_count": 79
  },
  {
    "name": "WHEATED",
    "cuisine": [
      "Pizza",
      "Italian"
    ],
    "category": "restaurants",
    "price_range": "$",
    "address": "905 CHURCH AVENUE",
    "city": "New York",
    "state": "NY",
    "neighborhood": "Park Slope",
    "latitude": 40.646418688571,
    "longitude": -73.97075357452,
    "phone": "3472402813",
    "grade": null,
    "tags": [
      "budget-friendly",
      "casual"
    ],
    "rating": 6.7,
    "rating_count": 364
  },
  {
    "name": "CANTINA 138",
    "cuisine": [
      "Mexican",
      "Latin"
    ],
    "category": "restaurants",
    "price_range": "$$",
    "address": "138 HAVEMEYER STREET",
    "city": "New York",
    "state": "NY",
    "neighborhood": "Brooklyn Heights",
    "latitude": 40.712009107312,
    "longitude": -73.957288193992,
    "phone": "3473350440",
    "grade": null,
    "tags": [],
    "rating": 6.3,
    "rating_count": 319
  },
  {
    "name": "THE NEW HOME",
    "cuisine": [
      "American"
    ],
    "category": "restaurants",
    "price_range": "$$",
    "address": "61-16 LAUREL HILL BOULEVARD",
    "city": "New York",
    "state": "NY",
    "neighborhood": "Jackson Heights",
    "latitude": 40.738073651424,
    "longitude": -73.903424952233,
    "phone": "7187752015",
    "grade": "N",
    "tags": [],
    "rating": 7.7,
    "rating_count": 224
  },
  {
    "name": "BLUE JAVA COFFEE BAR - BUTLER LIBRARY",
    "cuisine": [
      "Coffee/Tea"
    ],
    "category": "coffee_tea",
    "price_range": "$$",
    "address": "535 WEST  114 STREET",
    "city": "New York",
    "state": "NY",
    "neighborhood": "Greenwich Village",
    "latitude": 40.806236144809,
    "longitude": -73.963729523583,
    "phone": "2128541972",
    "grade": "A",
    "tags": [
      "clean",
      "highly-rated"
    ],
    "rating": 8.9,
    "rating_count": 495
  },
  {
    "name": "NEW MIZU SUSHI",
    "cuisine": [
      "Japanese",
      "Asian"
    ],
    "category": "restaurants",
    "price_range": "$$$",
    "address": "350 EAST    9 STREET",
    "city": "New York",
    "state": "NY",
    "neighborhood": "East Village",
    "latitude": 40.728660482032,
    "longitude": -73.986040585838,
    "phone": "6469985453",
    "grade": "A",
    "tags": [
      "clean",
      "highly-rated",
      "fresh-fish"
    ],
    "rating": 8.1,
    "rating_count": 450
  },
  {
    "name": "1.50 SOUTHERN PIZZA",
    "cuisine": [
      "Pizza",
      "Italian"
    ],
    "category": "restaurants",
    "price_range": "$",
    "address": "546 SOUTHERN BOULEVARD",
    "city": "New York",
    "state": "NY",
    "neighborhood": "South Bronx",
    "latitude": 40.812297427634,
    "longitude": -73.903519137215,
    "phone": "9173404740",
    "grade": "A",
    "tags": [
      "clean",
      "highly-rated",
      "budget-friendly",
      "casual"
    ],
    "rating": 9.1,
    "rating_count": 360
  },
  {
    "name": "GOLDEN PHOENIX",
    "cuisine": [
      "Chinese",
      "Asian"
    ],
    "category": "restaurants",
    "price_range": "$$",
    "address": "5646 RIVERDALE AVENUE",
    "city": "New York",
    "state": "NY",
    "neighborhood": "Fordham",
    "latitude": 40.905418779704,
    "longitude": -73.904522991476,
    "phone": "7185488888",
    "grade": null,
    "tags": [],
    "rating": 6.6,
    "rating_count": 173
  },
  {
    "name": "SKYLARK",
    "cuisine": [
      "American"
    ],
    "category": "restaurants",
    "price_range": "$$",
    "address": "477 5 AVENUE",
    "city": "New York",
    "state": "NY",
    "neighborhood": "Williamsburg",
    "latitude": 40.66787491869,
    "longitude": -73.98736547288,
    "phone": "3472278196",
    "grade": "A",
    "tags": [
      "clean",
      "highly-rated"
    ],
    "rating": 9,
    "rating_count": 212
  },
  {
    "name": "ANTOJITOS LA GARNACHA",
    "cuisine": [
      "Spanish",
      "European"
    ],
    "category": "restaurants",
    "price_range": "$$",
    "address": "8 EAST  183 STREET",
    "city": "New York",
    "state": "NY",
    "neighborhood": "Fordham",
    "latitude": 40.858617607854,
    "longitude": -73.903469758125,
    "phone": "3472976888",
    "grade": null,
    "tags": [],
    "rating": 7.7,
    "rating_count": 84
  },
  {
    "name": "MAMAN",
    "cuisine": [
      "American"
    ],
    "category": "restaurants",
    "price_range": "$$",
    "address": "114 WEST   41 STREET",
    "city": "New York",
    "state": "NY",
    "neighborhood": "Greenwich Village",
    "latitude": 40.754452925005,
    "longitude": -73.985291619707,
    "phone": "6468632146",
    "grade": null,
    "tags": [],
    "rating": 5.4,
    "rating_count": 494
  },
  {
    "name": "DOMINO'S",
    "cuisine": [
      "Pizza",
      "Italian"
    ],
    "category": "restaurants",
    "price_range": "$",
    "address": "86-15A ROCKAWAY BEACH BOULEVARD",
    "city": "New York",
    "state": "NY",
    "neighborhood": "Forest Hills",
    "latitude": 40.587520543068,
    "longitude": -73.811477741597,
    "phone": "7183545800",
    "grade": "A",
    "tags": [
      "clean",
      "highly-rated",
      "budget-friendly",
      "casual"
    ],
    "rating": 8.9,
    "rating_count": 109
  },
  {
    "name": "HARLEMITE",
    "cuisine": [
      "Peruvian",
      "Latin"
    ],
    "category": "restaurants",
    "price_range": "$$",
    "address": "231 LENOX AVENUE",
    "city": "New York",
    "state": "NY",
    "neighborhood": "Midtown",
    "latitude": 40.805546254611,
    "longitude": -73.947117391988,
    "phone": "3473998774",
    "grade": null,
    "tags": [],
    "rating": 5.2,
    "rating_count": 261
  },
  {
    "name": "TAVERN 157",
    "cuisine": [
      "Asian/Asian Fusion"
    ],
    "category": "restaurants",
    "price_range": "$$",
    "address": "157-12 NORTHERN BOULEVARD",
    "city": "New York",
    "state": "NY",
    "neighborhood": "Flushing",
    "latitude": 40.76371331477,
    "longitude": -73.808024180411,
    "phone": "7188867488",
    "grade": "A",
    "tags": [
      "clean",
      "highly-rated"
    ],
    "rating": 8.8,
    "rating_count": 348
  },
  {
    "name": "ST JOHN'S UNIVERSITY MONTGORIS",
    "cuisine": [
      "American"
    ],
    "category": "restaurants",
    "price_range": "$$",
    "address": "80-00 UTOPIA PARKWAY",
    "city": "New York",
    "state": "NY",
    "neighborhood": "Forest Hills",
    "latitude": 40.722181430104,
    "longitude": -73.790333193132,
    "phone": "7189902595",
    "grade": "A",
    "tags": [
      "clean",
      "highly-rated"
    ],
    "rating": 8.3,
    "rating_count": 130
  },
  {
    "name": "CANTONESE BEEF DELIGHTS",
    "cuisine": [
      "Chinese",
      "Asian"
    ],
    "category": "restaurants",
    "price_range": "$$",
    "address": "7215 18 AVENUE",
    "city": "New York",
    "state": "NY",
    "neighborhood": "Crown Heights",
    "latitude": 40.61497804913,
    "longitude": -73.994359506325,
    "phone": "3472884261",
    "grade": "A",
    "tags": [
      "clean",
      "highly-rated"
    ],
    "rating": 8,
    "rating_count": 213
  },
  {
    "name": "GOLDEN KRUST RESTAURANT",
    "cuisine": [
      "Caribbean",
      "Latin"
    ],
    "category": "restaurants",
    "price_range": "$$",
    "address": "358 EAST  149 STREET",
    "city": "New York",
    "state": "NY",
    "neighborhood": "Fordham",
    "latitude": 40.816443095824,
    "longitude": -73.919170959076,
    "phone": "7182924222",
    "grade": "A",
    "tags": [
      "clean",
      "highly-rated"
    ],
    "rating": 9,
    "rating_count": 470
  },
  {
    "name": "TARALLUCCI E VINO",
    "cuisine": [
      "Italian"
    ],
    "category": "restaurants",
    "price_range": "$$$",
    "address": "15 EAST   18 STREET",
    "city": "New York",
    "state": "NY",
    "neighborhood": "SoHo",
    "latitude": 40.7381111918,
    "longitude": -73.990855985505,
    "phone": "2122285400",
    "grade": "A",
    "tags": [
      "clean",
      "highly-rated"
    ],
    "rating": 9.3,
    "rating_count": 97
  },
  {
    "name": "ROKSTAR CHICKEN",
    "cuisine": [
      "Chicken"
    ],
    "category": "restaurants",
    "price_range": "$$",
    "address": "21 MANHATTAN AVENUE",
    "city": "New York",
    "state": "NY",
    "neighborhood": "DUMBO",
    "latitude": 40.702932035292,
    "longitude": -73.944234465426,
    "phone": "9298678868",
    "grade": "N",
    "tags": [],
    "rating": 6.5,
    "rating_count": 434
  },
  {
    "name": "MOLYVOS",
    "cuisine": [
      "Greek",
      "Mediterranean"
    ],
    "category": "restaurants",
    "price_range": "$$",
    "address": "402 WEST   43 STREET",
    "city": "New York",
    "state": "NY",
    "neighborhood": "Upper West Side",
    "latitude": 40.759358525789,
    "longitude": -73.992787848733,
    "phone": "9145896125",
    "grade": "A",
    "tags": [
      "clean",
      "highly-rated"
    ],
    "rating": 8.7,
    "rating_count": 255
  },
  {
    "name": "LA ANTIOQUENA BAKERY # 1",
    "cuisine": [
      "Bakery Products/Desserts"
    ],
    "category": "bakeries",
    "price_range": "$$",
    "address": "90-51 CORONA AVENUE",
    "city": "New York",
    "state": "NY",
    "neighborhood": "Astoria",
    "latitude": 40.742217183617,
    "longitude": -73.874029214178,
    "phone": "7187603333",
    "grade": "A",
    "tags": [
      "clean",
      "highly-rated"
    ],
    "rating": 8,
    "rating_count": 26
  },
  {
    "name": "MISIRIZZI",
    "cuisine": [
      "Italian"
    ],
    "category": "restaurants",
    "price_range": "$$$",
    "address": "36 EAST    4 STREET",
    "city": "New York",
    "state": "NY",
    "neighborhood": "East Village",
    "latitude": 40.727420436211,
    "longitude": -73.992260950127,
    "phone": "2123750100",
    "grade": "A",
    "tags": [
      "clean",
      "highly-rated"
    ],
    "rating": 8.2,
    "rating_count": 453
  },
  {
    "name": "SUSHI SEKI",
    "cuisine": [
      "Japanese",
      "Asian"
    ],
    "category": "restaurants",
    "price_range": "$$$",
    "address": "1143 1 AVENUE",
    "city": "New York",
    "state": "NY",
    "neighborhood": "Financial District",
    "latitude": 40.761816699614,
    "longitude": -73.960360575653,
    "phone": "2123710238",
    "grade": "A",
    "tags": [
      "clean",
      "highly-rated",
      "fresh-fish"
    ],
    "rating": 8.5,
    "rating_count": 380
  },
  {
    "name": "REDD'S TAVERN",
    "cuisine": [
      "Bottled Beverages"
    ],
    "category": "restaurants",
    "price_range": "$$",
    "address": "511 GRAND STREET",
    "city": "New York",
    "state": "NY",
    "neighborhood": "Crown Heights",
    "latitude": 40.711012785603,
    "longitude": -73.950532815931,
    "phone": "7182189429",
    "grade": "A",
    "tags": [
      "clean",
      "highly-rated"
    ],
    "rating": 8.7,
    "rating_count": 314
  },
  {
    "name": "KOS KAFFE",
    "cuisine": [
      "Coffee/Tea"
    ],
    "category": "coffee_tea",
    "price_range": "$$",
    "address": "251 5 AVENUE",
    "city": "New York",
    "state": "NY",
    "neighborhood": "Park Slope",
    "latitude": 40.674815675726,
    "longitude": -73.981581585474,
    "phone": "7187686868",
    "grade": null,
    "tags": [],
    "rating": 6.6,
    "rating_count": 404
  },
  {
    "name": "AMNON KOSHER PIZZA",
    "cuisine": [
      "Kosher",
      "Jewish"
    ],
    "category": "restaurants",
    "price_range": "$$",
    "address": "4814 13 AVENUE",
    "city": "New York",
    "state": "NY",
    "neighborhood": "DUMBO",
    "latitude": 40.635440249608,
    "longitude": -73.991695185257,
    "phone": "7188511759",
    "grade": null,
    "tags": [],
    "rating": 5.6,
    "rating_count": 374
  },
  {
    "name": "INWOOD BAGELS",
    "cuisine": [
      "Coffee/Tea"
    ],
    "category": "coffee_tea",
    "price_range": "$$",
    "address": "628 WEST  207 STREET",
    "city": "New York",
    "state": "NY",
    "neighborhood": "Midtown",
    "latitude": 40.868139090195,
    "longitude": -73.921512263379,
    "phone": "9083343696",
    "grade": "A",
    "tags": [
      "clean",
      "highly-rated"
    ],
    "rating": 8.6,
    "rating_count": 272
  },
  {
    "name": "CERVECCERIA HAVEMEYER",
    "cuisine": [
      "Spanish",
      "European"
    ],
    "category": "restaurants",
    "price_range": "$$",
    "address": "149 HAVEMEYER STREET",
    "city": "New York",
    "state": "NY",
    "neighborhood": "Williamsburg",
    "latitude": 40.711740174946,
    "longitude": -73.957436257964,
    "phone": "7185995799",
    "grade": "Z",
    "tags": [],
    "rating": 8,
    "rating_count": 300
  },
  {
    "name": "BAGELS BY THE PARK",
    "cuisine": [
      "American"
    ],
    "category": "restaurants",
    "price_range": "$$",
    "address": "323 SMITH STREET",
    "city": "New York",
    "state": "NY",
    "neighborhood": "Crown Heights",
    "latitude": 40.68108882487,
    "longitude": -73.994270968056,
    "phone": "7182461321",
    "grade": "A",
    "tags": [
      "clean",
      "highly-rated"
    ],
    "rating": 8.7,
    "rating_count": 109
  },
  {
    "name": "TBAAR",
    "cuisine": [
      "Juice, Smoothies, Fruit Salads"
    ],
    "category": "restaurants",
    "price_range": "$$",
    "address": "9015 QUEENS BLVD",
    "city": "New York",
    "state": "NY",
    "neighborhood": "Long Island City",
    "latitude": 40.733840182011,
    "longitude": -73.871577033806,
    "phone": "9298881636",
    "grade": "A",
    "tags": [
      "clean",
      "highly-rated"
    ],
    "rating": 9.2,
    "rating_count": 280
  },
  {
    "name": "NORTHERN BELL",
    "cuisine": [
      "American"
    ],
    "category": "restaurants",
    "price_range": "$$",
    "address": "612 METROPOLITAN AVENUE",
    "city": "New York",
    "state": "NY",
    "neighborhood": "Greenpoint",
    "latitude": 40.714121756532,
    "longitude": -73.948593418999,
    "phone": "7183889040",
    "grade": null,
    "tags": [],
    "rating": 6.2,
    "rating_count": 327
  },
  {
    "name": "CARVEL",
    "cuisine": [
      "Frozen Desserts"
    ],
    "category": "dessert",
    "price_range": "$$",
    "address": "2590I HYLAN BOULEVARD",
    "city": "New York",
    "state": "NY",
    "neighborhood": "Tottenville",
    "latitude": 40.56901758277,
    "longitude": -74.111202259041,
    "phone": "7187106187",
    "grade": "A",
    "tags": [
      "clean",
      "highly-rated"
    ],
    "rating": 8.7,
    "rating_count": 290
  },
  {
    "name": "150 JACKSON PIZZA",
    "cuisine": [
      "Pizza",
      "Italian"
    ],
    "category": "restaurants",
    "price_range": "$",
    "address": "658 WESTCHESTER AVENUE",
    "city": "New York",
    "state": "NY",
    "neighborhood": "Fordham",
    "latitude": 40.815987653523,
    "longitude": -73.908445198863,
    "phone": "9173404740",
    "grade": "A",
    "tags": [
      "clean",
      "highly-rated",
      "budget-friendly",
      "casual"
    ],
    "rating": 9.1,
    "rating_count": 122
  },
  {
    "name": "GOLDEN YEARS",
    "cuisine": [
      "American"
    ],
    "category": "restaurants",
    "price_range": "$$",
    "address": "221 NORTH    4 STREET",
    "city": "New York",
    "state": "NY",
    "neighborhood": "DUMBO",
    "latitude": 40.71441054574,
    "longitude": -73.956662596309,
    "phone": "7183025100",
    "grade": null,
    "tags": [],
    "rating": 7.2,
    "rating_count": 167
  },
  {
    "name": "MALOYA",
    "cuisine": [
      "French",
      "European"
    ],
    "category": "restaurants",
    "price_range": "$$$$",
    "address": "983 FLUSHING AVENUE",
    "city": "New York",
    "state": "NY",
    "neighborhood": "Greenpoint",
    "latitude": 40.702986506866,
    "longitude": -73.933172909822,
    "phone": "2035255384",
    "grade": "A",
    "tags": [
      "clean",
      "highly-rated",
      "special-occasion",
      "upscale"
    ],
    "rating": 9.2,
    "rating_count": 248
  },
  {
    "name": "EL PASO MEXICAN RESTAURANT",
    "cuisine": [
      "Mexican",
      "Latin"
    ],
    "category": "restaurants",
    "price_range": "$$",
    "address": "123 EAST  110 STREET",
    "city": "New York",
    "state": "NY",
    "neighborhood": "Financial District",
    "latitude": 40.795126281896,
    "longitude": -73.945182642736,
    "phone": "2128319831",
    "grade": null,
    "tags": [],
    "rating": 5.5,
    "rating_count": 59
  },
  {
    "name": "TANING LEMON TEA FLUSHING",
    "cuisine": [
      "Coffee/Tea"
    ],
    "category": "coffee_tea",
    "price_range": "$$",
    "address": "39-07 PRINCE STREET",
    "city": "New York",
    "state": "NY",
    "neighborhood": "Flushing",
    "latitude": 40.759535331184,
    "longitude": -73.832253763433,
    "phone": "9178924086",
    "grade": "N",
    "tags": [],
    "rating": 5.1,
    "rating_count": 337
  },
  {
    "name": "PAPA JOHN'S PIZZA",
    "cuisine": [
      "Pizza",
      "Italian"
    ],
    "category": "restaurants",
    "price_range": "$",
    "address": "1979 JEROME AVENUE",
    "city": "New York",
    "state": "NY",
    "neighborhood": "Pelham Bay",
    "latitude": 40.852240462596,
    "longitude": -73.908807186625,
    "phone": "7182957272",
    "grade": "A",
    "tags": [
      "clean",
      "highly-rated",
      "budget-friendly",
      "casual"
    ],
    "rating": 8.8,
    "rating_count": 68
  },
  {
    "name": "19 CAFE",
    "cuisine": [
      "Coffee/Tea"
    ],
    "category": "coffee_tea",
    "price_range": "$$",
    "address": "84 MANHATTAN AVENUE",
    "city": "New York",
    "state": "NY",
    "neighborhood": "Williamsburg",
    "latitude": 40.705232327599,
    "longitude": -73.944593208116,
    "phone": "7183878777",
    "grade": "A",
    "tags": [
      "clean",
      "highly-rated"
    ],
    "rating": 9.4,
    "rating_count": 278
  },
  {
    "name": "SHIAWASE",
    "cuisine": [
      "Japanese",
      "Asian"
    ],
    "category": "restaurants",
    "price_range": "$$$",
    "address": "6610 BAY PARKWAY",
    "city": "New York",
    "state": "NY",
    "neighborhood": "Greenpoint",
    "latitude": 40.612945692503,
    "longitude": -73.982387502381,
    "phone": "3473742645",
    "grade": "A",
    "tags": [
      "clean",
      "highly-rated",
      "fresh-fish"
    ],
    "rating": 8.5,
    "rating_count": 481
  },
  {
    "name": "SUKI STATION",
    "cuisine": [
      "Japanese",
      "Asian"
    ],
    "category": "restaurants",
    "price_range": "$$$",
    "address": "6522 17 AVENUE",
    "city": "New York",
    "state": "NY",
    "neighborhood": "Park Slope",
    "latitude": 40.620324793806,
    "longitude": -73.992666048157,
    "phone": "3478376703",
    "grade": null,
    "tags": [
      "fresh-fish"
    ],
    "rating": 7.2,
    "rating_count": 418
  },
  {
    "name": "GREENWICH STREET TAVERN",
    "cuisine": [
      "American"
    ],
    "category": "restaurants",
    "price_range": "$$",
    "address": "399 GREENWICH STREET",
    "city": "New York",
    "state": "NY",
    "neighborhood": "Financial District",
    "latitude": 40.72085203149,
    "longitude": -74.010036320129,
    "phone": "2123347827",
    "grade": "Z",
    "tags": [],
    "rating": 6.5,
    "rating_count": 106
  },
  {
    "name": "TOMO JAPANESE RESTAURANT",
    "cuisine": [
      "Japanese",
      "Asian"
    ],
    "category": "restaurants",
    "price_range": "$$$",
    "address": "4561 AMBOY ROAD",
    "city": "New York",
    "state": "NY",
    "neighborhood": "St. George",
    "latitude": 40.542437865267,
    "longitude": -74.165044018382,
    "phone": "7182275100",
    "grade": null,
    "tags": [
      "fresh-fish"
    ],
    "rating": 6.8,
    "rating_count": 215
  },
  {
    "name": "BLUE ANGEL",
    "cuisine": [
      "Mexican",
      "Latin"
    ],
    "category": "restaurants",
    "price_range": "$$",
    "address": "112-51 ROOSEVELT AVENUE",
    "city": "New York",
    "state": "NY",
    "neighborhood": "Jackson Heights",
    "latitude": 40.752066622248,
    "longitude": -73.854202716594,
    "phone": "6465458469",
    "grade": null,
    "tags": [],
    "rating": 8.1,
    "rating_count": 62
  },
  {
    "name": "MCDONALD'S",
    "cuisine": [
      "American"
    ],
    "category": "restaurants",
    "price_range": "$$",
    "address": "3267 RICHMOND AVENUE",
    "city": "New York",
    "state": "NY",
    "neighborhood": "St. George",
    "latitude": 40.55951213878,
    "longitude": -74.169552537053,
    "phone": "7189483800",
    "grade": "A",
    "tags": [
      "clean",
      "highly-rated"
    ],
    "rating": 8.6,
    "rating_count": 324
  },
  {
    "name": "MEZCAL'S",
    "cuisine": [
      "Mexican",
      "Latin"
    ],
    "category": "restaurants",
    "price_range": "$$",
    "address": "223 5 AVENUE",
    "city": "New York",
    "state": "NY",
    "neighborhood": "Bushwick",
    "latitude": 40.675861310029,
    "longitude": -73.980817004063,
    "phone": "7187833276",
    "grade": "A",
    "tags": [
      "clean",
      "highly-rated"
    ],
    "rating": 8.5,
    "rating_count": 442
  },
  {
    "name": "DOMINO'S",
    "cuisine": [
      "Pizza",
      "Italian"
    ],
    "category": "restaurants",
    "price_range": "$",
    "address": "3902 RICHMOND AVENUE",
    "city": "New York",
    "state": "NY",
    "neighborhood": "Tottenville",
    "latitude": 40.542878758809,
    "longitude": -74.163843395136,
    "phone": "7182271900",
    "grade": "A",
    "tags": [
      "clean",
      "highly-rated",
      "budget-friendly",
      "casual"
    ],
    "rating": 8.2,
    "rating_count": 20
  },
  {
    "name": "BAREBURGER",
    "cuisine": [
      "Burgers",
      "American"
    ],
    "category": "restaurants",
    "price_range": "$",
    "address": "48-19 VERNON BOULEVARD",
    "city": "New York",
    "state": "NY",
    "neighborhood": "Flushing",
    "latitude": 40.743910128927,
    "longitude": -73.953691297685,
    "phone": "5168158243",
    "grade": "A",
    "tags": [
      "clean",
      "highly-rated",
      "budget-friendly",
      "casual"
    ],
    "rating": 8.9,
    "rating_count": 96
  },
  {
    "name": "LA CASA DEL MOFONGO AND PIANO BAR/ BARRA PAYAN",
    "cuisine": [
      "Latin American"
    ],
    "category": "restaurants",
    "price_range": "$$",
    "address": "546 WEST  207 STREET",
    "city": "New York",
    "state": "NY",
    "neighborhood": "Lower East Side",
    "latitude": 40.865972542051,
    "longitude": -73.920122864308,
    "phone": "2125448888",
    "grade": null,
    "tags": [],
    "rating": 5.9,
    "rating_count": 343
  },
  {
    "name": "AY GUEY",
    "cuisine": [
      "Mexican",
      "Latin"
    ],
    "category": "restaurants",
    "price_range": "$$",
    "address": "30-86 51 STREET",
    "city": "New York",
    "state": "NY",
    "neighborhood": "Forest Hills",
    "latitude": 40.757287780699,
    "longitude": -73.907717648033,
    "phone": "2127494918",
    "grade": null,
    "tags": [],
    "rating": 7.4,
    "rating_count": 67
  },
  {
    "name": "FINN'S CORNER",
    "cuisine": [
      "American"
    ],
    "category": "restaurants",
    "price_range": "$$",
    "address": "660 WASHINGTON AVENUE",
    "city": "New York",
    "state": "NY",
    "neighborhood": "DUMBO",
    "latitude": 40.678357715508,
    "longitude": -73.963882262973,
    "phone": "3476639316",
    "grade": "A",
    "tags": [
      "clean",
      "highly-rated"
    ],
    "rating": 9.2,
    "rating_count": 380
  },
  {
    "name": "CRAFT + CARRY",
    "cuisine": [
      "American"
    ],
    "category": "restaurants",
    "price_range": "$$",
    "address": "1630 2 AVENUE",
    "city": "New York",
    "state": "NY",
    "neighborhood": "Financial District",
    "latitude": 40.776893384929,
    "longitude": -73.952444264781,
    "phone": "9174091460",
    "grade": "A",
    "tags": [
      "clean",
      "highly-rated"
    ],
    "rating": 8.4,
    "rating_count": 195
  },
  {
    "name": "MENDYS RESTAURANT",
    "cuisine": [
      "Kosher",
      "Jewish"
    ],
    "category": "restaurants",
    "price_range": "$$",
    "address": "792 EASTERN PARKWAY",
    "city": "New York",
    "state": "NY",
    "neighborhood": "Brooklyn Heights",
    "latitude": 40.669362197373,
    "longitude": -73.941735678325,
    "phone": "7189078877",
    "grade": "A",
    "tags": [
      "clean",
      "highly-rated"
    ],
    "rating": 8.8,
    "rating_count": 47
  },
  {
    "name": "KAIZEN",
    "cuisine": [
      "Japanese",
      "Asian"
    ],
    "category": "restaurants",
    "price_range": "$$$",
    "address": "33-70 FARRINGTON STREET",
    "city": "New York",
    "state": "NY",
    "neighborhood": "Long Island City",
    "latitude": 40.766290610466,
    "longitude": -73.832539929218,
    "phone": "7189712413",
    "grade": "A",
    "tags": [
      "clean",
      "highly-rated",
      "fresh-fish"
    ],
    "rating": 8.5,
    "rating_count": 419
  },
  {
    "name": "HANJAN",
    "cuisine": [
      "Korean",
      "Asian"
    ],
    "category": "restaurants",
    "price_range": "$$",
    "address": "152-24 NORTHERN BOULEVARD",
    "city": "New York",
    "state": "NY",
    "neighborhood": "Forest Hills",
    "latitude": 40.764889406599,
    "longitude": -73.812147001374,
    "phone": "3474381584",
    "grade": "N",
    "tags": [],
    "rating": 6.9,
    "rating_count": 111
  },
  {
    "name": "KENNEDY FRIED CHICKEN",
    "cuisine": [
      "Chicken"
    ],
    "category": "restaurants",
    "price_range": "$$",
    "address": "60-29 ROOSEVELT AVENUE",
    "city": "New York",
    "state": "NY",
    "neighborhood": "Forest Hills",
    "latitude": 40.745518003639,
    "longitude": -73.904081772197,
    "phone": "9173015693",
    "grade": null,
    "tags": [],
    "rating": 8,
    "rating_count": 279
  },
  {
    "name": "EMPORIO",
    "cuisine": [
      "Italian"
    ],
    "category": "restaurants",
    "price_range": "$$$",
    "address": "231 MOTT STREET",
    "city": "New York",
    "state": "NY",
    "neighborhood": "Upper West Side",
    "latitude": 40.72252941951,
    "longitude": -73.995118805103,
    "phone": "2129661234",
    "grade": "A",
    "tags": [
      "clean",
      "highly-rated"
    ],
    "rating": 8.7,
    "rating_count": 25
  },
  {
    "name": "PORTO SALVO",
    "cuisine": [
      "Italian"
    ],
    "category": "restaurants",
    "price_range": "$$$",
    "address": "424 EAST  161 STREET",
    "city": "New York",
    "state": "NY",
    "neighborhood": "Riverdale",
    "latitude": 40.823909742434,
    "longitude": -73.912950759917,
    "phone": "9293767866",
    "grade": "A",
    "tags": [
      "clean",
      "highly-rated"
    ],
    "rating": 8.7,
    "rating_count": 170
  },
  {
    "name": "MANDATO MEXICAN RESTAURANT",
    "cuisine": [
      "Mexican",
      "Latin"
    ],
    "category": "restaurants",
    "price_range": "$$",
    "address": "7218 3 AVENUE",
    "city": "New York",
    "state": "NY",
    "neighborhood": "Greenpoint",
    "latitude": 40.633321131791,
    "longitude": -74.027039327008,
    "phone": "7184924228",
    "grade": "A",
    "tags": [
      "clean",
      "highly-rated"
    ],
    "rating": 9.2,
    "rating_count": 491
  },
  {
    "name": "LOS CHILES BAR & RESTAURANT",
    "cuisine": [
      "Mexican",
      "Latin"
    ],
    "category": "restaurants",
    "price_range": "$$",
    "address": "96-07 37 AVENUE",
    "city": "New York",
    "state": "NY",
    "neighborhood": "Long Island City",
    "latitude": 40.751592309972,
    "longitude": -73.87067284564,
    "phone": "6462200043",
    "grade": "A",
    "tags": [
      "clean",
      "highly-rated"
    ],
    "rating": 9.3,
    "rating_count": 435
  },
  {
    "name": "BIERWAX",
    "cuisine": [
      "American"
    ],
    "category": "restaurants",
    "price_range": "$$",
    "address": "556 VANDERBILT AVENUE",
    "city": "New York",
    "state": "NY",
    "neighborhood": "Crown Heights",
    "latitude": 40.679959156014,
    "longitude": -73.96804559612,
    "phone": "3475338449",
    "grade": null,
    "tags": [],
    "rating": 8.3,
    "rating_count": 202
  },
  {
    "name": "LA BRUSCHETTA",
    "cuisine": [
      "Pizza",
      "Italian"
    ],
    "category": "restaurants",
    "price_range": "$",
    "address": "256 7 AVENUE",
    "city": "New York",
    "state": "NY",
    "neighborhood": "Crown Heights",
    "latitude": 40.669172094594,
    "longitude": -73.979687032616,
    "phone": "7184994994",
    "grade": "A",
    "tags": [
      "clean",
      "highly-rated",
      "budget-friendly",
      "casual"
    ],
    "rating": 9,
    "rating_count": 187
  },
  {
    "name": "TEX-MEX EXPRESS",
    "cuisine": [
      "Chinese",
      "Asian"
    ],
    "category": "restaurants",
    "price_range": "$$",
    "address": "70-09 GRAND AVENUE",
    "city": "New York",
    "state": "NY",
    "neighborhood": "Flushing",
    "latitude": 40.727636565739,
    "longitude": -73.89250079267,
    "phone": "7184788282",
    "grade": "A",
    "tags": [
      "clean",
      "highly-rated"
    ],
    "rating": 8.5,
    "rating_count": 502
  },
  {
    "name": "PLAYA BOWLS",
    "cuisine": [
      "Juice, Smoothies, Fruit Salads"
    ],
    "category": "restaurants",
    "price_range": "$$",
    "address": "1248 LEXINGTON AVENUE",
    "city": "New York",
    "state": "NY",
    "neighborhood": "Upper West Side",
    "latitude": 40.77827285406,
    "longitude": -73.95648366598,
    "phone": "6469644940",
    "grade": "A",
    "tags": [
      "clean",
      "highly-rated"
    ],
    "rating": 8.2,
    "rating_count": 358
  },
  {
    "name": "BEANS AND VINES EXPRESS",
    "cuisine": [
      "Latin American"
    ],
    "category": "restaurants",
    "price_range": "$$",
    "address": "4842 BROADWAY",
    "city": "New York",
    "state": "NY",
    "neighborhood": "Greenwich Village",
    "latitude": 40.866450433938,
    "longitude": -73.924645306362,
    "phone": "2125442326",
    "grade": "A",
    "tags": [
      "clean",
      "highly-rated"
    ],
    "rating": 9.1,
    "rating_count": 343
  },
  {
    "name": "COQUITO BLU",
    "cuisine": [
      "Latin American"
    ],
    "category": "restaurants",
    "price_range": "$$",
    "address": "19-11 FRANCIS LEWIS BOULEVARD",
    "city": "New York",
    "state": "NY",
    "neighborhood": "Astoria",
    "latitude": 40.780815542333,
    "longitude": -73.802937530011,
    "phone": "7187472600",
    "grade": "A",
    "tags": [
      "clean",
      "highly-rated"
    ],
    "rating": 8.7,
    "rating_count": 389
  },
  {
    "name": "BEER KARMA",
    "cuisine": [
      "Bottled Beverages"
    ],
    "category": "restaurants",
    "price_range": "$$",
    "address": "470 UNION AVENUE",
    "city": "New York",
    "state": "NY",
    "neighborhood": "Williamsburg",
    "latitude": 40.714460705603,
    "longitude": -73.951680958316,
    "phone": "3478813362",
    "grade": "A",
    "tags": [
      "clean",
      "highly-rated"
    ],
    "rating": 8.9,
    "rating_count": 332
  },
  {
    "name": "ONE BAR AND LOUNGE",
    "cuisine": [
      "Caribbean",
      "Latin"
    ],
    "category": "restaurants",
    "price_range": "$$",
    "address": "125-17 ROCKAWAY BOULEVARD",
    "city": "New York",
    "state": "NY",
    "neighborhood": "Forest Hills",
    "latitude": 40.675347077442,
    "longitude": -73.812403794187,
    "phone": "3479680400",
    "grade": "Z",
    "tags": [],
    "rating": 9.4,
    "rating_count": 238
  },
  {
    "name": "BOLIVIAN LLAMA PARTY",
    "cuisine": [
      "Latin American"
    ],
    "category": "restaurants",
    "price_range": "$$",
    "address": "44-14 48 AVENUE",
    "city": "New York",
    "state": "NY",
    "neighborhood": "Astoria",
    "latitude": 40.739481503076,
    "longitude": -73.921090639282,
    "phone": "3473709102",
    "grade": "A",
    "tags": [
      "clean",
      "highly-rated"
    ],
    "rating": 9,
    "rating_count": 150
  },
  {
    "name": "ATM VEGAN DELI",
    "cuisine": [
      "Vegetarian",
      "Healthy"
    ],
    "category": "restaurants",
    "price_range": "$$",
    "address": "525 DEKALB AVENUE",
    "city": "New York",
    "state": "NY",
    "neighborhood": "Brooklyn Heights",
    "latitude": 40.690860096506,
    "longitude": -73.955848590693,
    "phone": "9177534867",
    "grade": "A",
    "tags": [
      "clean",
      "highly-rated",
      "vegetarian-friendly"
    ],
    "rating": 8,
    "rating_count": 132
  },
  {
    "name": "BEAUTY BAR",
    "cuisine": [
      "American"
    ],
    "category": "restaurants",
    "price_range": "$$",
    "address": "231 EAST   14 STREET",
    "city": "New York",
    "state": "NY",
    "neighborhood": "Lower East Side",
    "latitude": 40.732950588683,
    "longitude": -73.986360817814,
    "phone": "2125391389",
    "grade": "A",
    "tags": [
      "clean",
      "highly-rated"
    ],
    "rating": 8,
    "rating_count": 241
  },
  {
    "name": "QUETZALITO RESTAURANT",
    "cuisine": [
      "Mexican",
      "Latin"
    ],
    "category": "restaurants",
    "price_range": "$$",
    "address": "964 MCDONALD AVENUE",
    "city": "New York",
    "state": "NY",
    "neighborhood": "Bushwick",
    "latitude": 40.630374139,
    "longitude": -73.977108558677,
    "phone": "3472402930",
    "grade": "A",
    "tags": [
      "clean",
      "highly-rated"
    ],
    "rating": 8.3,
    "rating_count": 160
  },
  {
    "name": "HAHM JI BACH",
    "cuisine": [
      "Korean",
      "Asian"
    ],
    "category": "restaurants",
    "price_range": "$$",
    "address": "40-11 149 PLACE",
    "city": "New York",
    "state": "NY",
    "neighborhood": "Flushing",
    "latitude": 40.763123883948,
    "longitude": -73.815133776225,
    "phone": "6466102622",
    "grade": null,
    "tags": [],
    "rating": 7.7,
    "rating_count": 316
  },
  {
    "name": "MAMA PISCO KITCHEN",
    "cuisine": [
      "Peruvian",
      "Latin"
    ],
    "category": "restaurants",
    "price_range": "$$",
    "address": "53-05 65 PLACE",
    "city": "New York",
    "state": "NY",
    "neighborhood": "Astoria",
    "latitude": 40.730810946032,
    "longitude": -73.900155723596,
    "phone": "7184240430",
    "grade": "A",
    "tags": [
      "clean",
      "highly-rated"
    ],
    "rating": 9,
    "rating_count": 302
  },
  {
    "name": "THE BROOKLYN TREE",
    "cuisine": [
      "American"
    ],
    "category": "restaurants",
    "price_range": "$$",
    "address": "188 MONTROSE AVENUE",
    "city": "New York",
    "state": "NY",
    "neighborhood": "Greenpoint",
    "latitude": 40.707432359652,
    "longitude": -73.94201607197,
    "phone": "9179090307",
    "grade": "A",
    "tags": [
      "clean",
      "highly-rated"
    ],
    "rating": 9.3,
    "rating_count": 258
  },
  {
    "name": "UNION CAFE",
    "cuisine": [
      "American"
    ],
    "category": "restaurants",
    "price_range": "$$",
    "address": "568 UNION STREET",
    "city": "New York",
    "state": "NY",
    "neighborhood": "Crown Heights",
    "latitude": 40.678134599511,
    "longitude": -73.984933568321,
    "phone": "7187971117",
    "grade": "A",
    "tags": [
      "clean",
      "highly-rated"
    ],
    "rating": 8,
    "rating_count": 104
  },
  {
    "name": "PETE'S TAVERN",
    "cuisine": [
      "American"
    ],
    "category": "restaurants",
    "price_range": "$$",
    "address": "129 EAST   18 STREET",
    "city": "New York",
    "state": "NY",
    "neighborhood": "Chelsea",
    "latitude": 40.73635138988,
    "longitude": -73.98668487807,
    "phone": "9178429242",
    "grade": "A",
    "tags": [
      "clean",
      "highly-rated"
    ],
    "rating": 8.8,
    "rating_count": 223
  },
  {
    "name": "PHO HOAI BAYRIDGE",
    "cuisine": [
      "Southeast Asian"
    ],
    "category": "restaurants",
    "price_range": "$$",
    "address": "8616 4 AVENUE",
    "city": "New York",
    "state": "NY",
    "neighborhood": "Brooklyn Heights",
    "latitude": 40.622605158678,
    "longitude": -74.028436248717,
    "phone": "7187451640",
    "grade": null,
    "tags": [],
    "rating": 7.7,
    "rating_count": 40
  },
  {
    "name": "BROOKLYN KOLACHE CO",
    "cuisine": [
      "Coffee/Tea"
    ],
    "category": "coffee_tea",
    "price_range": "$$",
    "address": "520 DEKALB AVENUE",
    "city": "New York",
    "state": "NY",
    "neighborhood": "DUMBO",
    "latitude": 40.690854569422,
    "longitude": -73.955751233369,
    "phone": "7183981111",
    "grade": "A",
    "tags": [
      "clean",
      "highly-rated"
    ],
    "rating": 9.1,
    "rating_count": 203
  },
  {
    "name": "BUTTER BETTER CAFE",
    "cuisine": [
      "Coffee/Tea"
    ],
    "category": "coffee_tea",
    "price_range": "$$",
    "address": "4209 162ND ST",
    "city": "New York",
    "state": "NY",
    "neighborhood": "Astoria",
    "latitude": 40.759948983921,
    "longitude": -73.804031885321,
    "phone": "9293651996",
    "grade": "N",
    "tags": [],
    "rating": 8.4,
    "rating_count": 53
  },
  {
    "name": "KISSA KISSA",
    "cuisine": [
      "American"
    ],
    "category": "restaurants",
    "price_range": "$$",
    "address": "667 FRANKLIN AVENUE",
    "city": "New York",
    "state": "NY",
    "neighborhood": "Crown Heights",
    "latitude": 40.675643182321,
    "longitude": -73.956157929789,
    "phone": "3475079090",
    "grade": "A",
    "tags": [
      "clean",
      "highly-rated"
    ],
    "rating": 9,
    "rating_count": 209
  },
  {
    "name": "PURE EATS",
    "cuisine": [
      "American"
    ],
    "category": "restaurants",
    "price_range": "$$",
    "address": "26-50 BQE WEST",
    "city": "New York",
    "state": "NY",
    "neighborhood": "Flushing",
    "latitude": 40.761652825795,
    "longitude": -73.902148856194,
    "phone": "7187264343",
    "grade": "A",
    "tags": [
      "clean",
      "highly-rated"
    ],
    "rating": 9.3,
    "rating_count": 212
  },
  {
    "name": "SABBA'S CHICKEN",
    "cuisine": [
      "Chicken"
    ],
    "category": "restaurants",
    "price_range": "$$",
    "address": "1504 WESTCHESTER AVENUE",
    "city": "New York",
    "state": "NY",
    "neighborhood": "Riverdale",
    "latitude": 40.828518474267,
    "longitude": -73.879820171947,
    "phone": "7184849105",
    "grade": null,
    "tags": [],
    "rating": 5.7,
    "rating_count": 267
  },
  {
    "name": "HOOPS CABARET AND SPORTS BAR",
    "cuisine": [
      "American"
    ],
    "category": "restaurants",
    "price_range": "$$",
    "address": "48 WEST   33 STREET",
    "city": "New York",
    "state": "NY",
    "neighborhood": "Midtown",
    "latitude": 40.748634255565,
    "longitude": -73.987147987779,
    "phone": "2125644480",
    "grade": "A",
    "tags": [
      "clean",
      "highly-rated"
    ],
    "rating": 9.5,
    "rating_count": 127
  },
  {
    "name": "COFFEE DELIGHT",
    "cuisine": [
      "American"
    ],
    "category": "restaurants",
    "price_range": "$$",
    "address": "504 WILLIS AVENUE",
    "city": "New York",
    "state": "NY",
    "neighborhood": "Pelham Bay",
    "latitude": 40.815103161015,
    "longitude": -73.918464499224,
    "phone": "7186654581",
    "grade": null,
    "tags": [],
    "rating": 5.7,
    "rating_count": 330
  },
  {
    "name": "ANTLER",
    "cuisine": [
      "American"
    ],
    "category": "restaurants",
    "price_range": "$$",
    "address": "123 ALLEN STREET",
    "city": "New York",
    "state": "NY",
    "neighborhood": "Midtown",
    "latitude": 40.719680030175,
    "longitude": -73.990129803329,
    "phone": "2124325000",
    "grade": null,
    "tags": [],
    "rating": 8,
    "rating_count": 386
  },
  {
    "name": "TERIYAKI ONE",
    "cuisine": [
      "Japanese",
      "Asian"
    ],
    "category": "restaurants",
    "price_range": "$$$",
    "address": "2510 HYLAN BOULEVARD",
    "city": "New York",
    "state": "NY",
    "neighborhood": "St. George",
    "latitude": 40.570251199331,
    "longitude": -74.10995531852,
    "phone": "9176883039",
    "grade": "A",
    "tags": [
      "clean",
      "highly-rated",
      "fresh-fish"
    ],
    "rating": 8,
    "rating_count": 157
  },
  {
    "name": "AUNTIE ANNES",
    "cuisine": [
      "Hotdogs/Pretzels"
    ],
    "category": "restaurants",
    "price_range": "$$",
    "address": "200 BAYCHESTER AVENUE",
    "city": "New York",
    "state": "NY",
    "neighborhood": "Riverdale",
    "latitude": 40.865905409786,
    "longitude": -73.830429747919,
    "phone": "5167290848",
    "grade": "A",
    "tags": [
      "clean",
      "highly-rated"
    ],
    "rating": 8.9,
    "rating_count": 413
  },
  {
    "name": "4 BOY 99 CENT PIZZA",
    "cuisine": [
      "Pizza",
      "Italian"
    ],
    "category": "restaurants",
    "price_range": "$",
    "address": "252 WEST   31 STREET",
    "city": "New York",
    "state": "NY",
    "neighborhood": "SoHo",
    "latitude": 40.749710736958,
    "longitude": -73.993489074395,
    "phone": "9292615088",
    "grade": "A",
    "tags": [
      "clean",
      "highly-rated",
      "budget-friendly",
      "casual"
    ],
    "rating": 8.5,
    "rating_count": 235
  },
  {
    "name": "GRILL 21",
    "cuisine": [
      "Filipino",
      "Asian"
    ],
    "category": "restaurants",
    "price_range": "$$",
    "address": "346 EAST   21 STREET",
    "city": "New York",
    "state": "NY",
    "neighborhood": "Midtown",
    "latitude": 40.735760274486,
    "longitude": -73.979883158793,
    "phone": "2124735950",
    "grade": null,
    "tags": [],
    "rating": 8,
    "rating_count": 232
  },
  {
    "name": "AMALFI COAST",
    "cuisine": [
      "Pizza",
      "Italian"
    ],
    "category": "restaurants",
    "price_range": "$",
    "address": "572 MIDLAND AVENUE",
    "city": "New York",
    "state": "NY",
    "neighborhood": "Tottenville",
    "latitude": 40.572354847552,
    "longitude": -74.093213720599,
    "phone": "7187100336",
    "grade": null,
    "tags": [
      "budget-friendly",
      "casual"
    ],
    "rating": 7.3,
    "rating_count": 253
  },
  {
    "name": "CHUITO BAR RESTAURANT",
    "cuisine": [
      "Spanish",
      "European"
    ],
    "category": "restaurants",
    "price_range": "$$",
    "address": "485 EAST  180 STREET",
    "city": "New York",
    "state": "NY",
    "neighborhood": "Pelham Bay",
    "latitude": 40.851350655359,
    "longitude": -73.895321968814,
    "phone": "3476100203",
    "grade": "N",
    "tags": [],
    "rating": 8.1,
    "rating_count": 346
  },
  {
    "name": "LITTLE BASIL",
    "cuisine": [
      "Thai",
      "Asian"
    ],
    "category": "restaurants",
    "price_range": "$$",
    "address": "153 EAST   26 STREET",
    "city": "New York",
    "state": "NY",
    "neighborhood": "Upper West Side",
    "latitude": 40.740997693953,
    "longitude": -73.982378782606,
    "phone": "2126891444",
    "grade": "A",
    "tags": [
      "clean",
      "highly-rated"
    ],
    "rating": 8.6,
    "rating_count": 279
  },
  {
    "name": "PREGAME BAR",
    "cuisine": [
      "Bottled Beverages"
    ],
    "category": "restaurants",
    "price_range": "$$",
    "address": "178-23 HILLSIDE AVENUE",
    "city": "New York",
    "state": "NY",
    "neighborhood": "Forest Hills",
    "latitude": 40.712350896055,
    "longitude": -73.785079773966,
    "phone": "3475673310",
    "grade": null,
    "tags": [],
    "rating": 7.6,
    "rating_count": 223
  },
  {
    "name": "LA PLACITA TAQUERIA & CAFFE",
    "cuisine": [
      "Mexican",
      "Latin"
    ],
    "category": "restaurants",
    "price_range": "$$",
    "address": "3887 BROADWAY",
    "city": "New York",
    "state": "NY",
    "neighborhood": "Financial District",
    "latitude": 40.837443388988,
    "longitude": -73.942411888754,
    "phone": "6467337388",
    "grade": "Z",
    "tags": [],
    "rating": 6.9,
    "rating_count": 204
  },
  {
    "name": "JUST SALAD",
    "cuisine": [
      "Salads"
    ],
    "category": "restaurants",
    "price_range": "$$",
    "address": "53 EAST    8 STREET",
    "city": "New York",
    "state": "NY",
    "neighborhood": "Upper West Side",
    "latitude": 40.731112230415,
    "longitude": -73.993635224606,
    "phone": "3328773727",
    "grade": null,
    "tags": [],
    "rating": 8.3,
    "rating_count": 418
  },
  {
    "name": "MEZQUILA",
    "cuisine": [
      "Mexican",
      "Latin"
    ],
    "category": "restaurants",
    "price_range": "$$",
    "address": "634 4 AVENUE",
    "city": "New York",
    "state": "NY",
    "neighborhood": "Brooklyn Heights",
    "latitude": 40.664315482497,
    "longitude": -73.994020097683,
    "phone": "3476784176",
    "grade": null,
    "tags": [],
    "rating": 5.1,
    "rating_count": 65
  },
  {
    "name": "UOTORA JAPANESE RESTAURANT",
    "cuisine": [
      "Japanese",
      "Asian"
    ],
    "category": "restaurants",
    "price_range": "$$$",
    "address": "1075 BERGEN STREET",
    "city": "New York",
    "state": "NY",
    "neighborhood": "Williamsburg",
    "latitude": 40.676137770407,
    "longitude": -73.95070299007,
    "phone": "7185130724",
    "grade": null,
    "tags": [
      "fresh-fish"
    ],
    "rating": 7.1,
    "rating_count": 475
  },
  {
    "name": "MOHO MEXICAN GRILL",
    "cuisine": [
      "Mexican",
      "Latin"
    ],
    "category": "restaurants",
    "price_range": "$$",
    "address": "38-05 BELL BOULEVARD",
    "city": "New York",
    "state": "NY",
    "neighborhood": "Flushing",
    "latitude": 40.766329866877,
    "longitude": -73.772417658896,
    "phone": "7187099695",
    "grade": "A",
    "tags": [
      "clean",
      "highly-rated"
    ],
    "rating": 9,
    "rating_count": 437
  },
  {
    "name": "WXOU RADIO",
    "cuisine": [
      "American"
    ],
    "category": "restaurants",
    "price_range": "$$",
    "address": "558 HUDSON STREET",
    "city": "New York",
    "state": "NY",
    "neighborhood": "Financial District",
    "latitude": 40.735369378972,
    "longitude": -74.00602238744,
    "phone": "2122060381",
    "grade": null,
    "tags": [],
    "rating": 8,
    "rating_count": 403
  },
  {
    "name": "VICE LOUNGE",
    "cuisine": [
      "American"
    ],
    "category": "restaurants",
    "price_range": "$$",
    "address": "211 KINGS HIGHWAY",
    "city": "New York",
    "state": "NY",
    "neighborhood": "DUMBO",
    "latitude": 40.605554163924,
    "longitude": -73.983595907898,
    "phone": "7185304806",
    "grade": null,
    "tags": [],
    "rating": 5.8,
    "rating_count": 235
  },
  {
    "name": "CATANIA BAKERY",
    "cuisine": [
      "Bakery Products/Desserts"
    ],
    "category": "bakeries",
    "price_range": "$$",
    "address": "487 HARMAN STREET",
    "city": "New York",
    "state": "NY",
    "neighborhood": "Bushwick",
    "latitude": 40.704585063198,
    "longitude": -73.914203616552,
    "phone": "7183667813",
    "grade": null,
    "tags": [],
    "rating": 7.1,
    "rating_count": 53
  },
  {
    "name": "THA PHRAYA",
    "cuisine": [
      "Thai",
      "Asian"
    ],
    "category": "restaurants",
    "price_range": "$$",
    "address": "1553 2 AVENUE",
    "city": "New York",
    "state": "NY",
    "neighborhood": "Greenwich Village",
    "latitude": 40.774410127606,
    "longitude": -73.954280181453,
    "phone": "9179302455",
    "grade": "A",
    "tags": [
      "clean",
      "highly-rated"
    ],
    "rating": 8.9,
    "rating_count": 167
  },
  {
    "name": "FRESH & CO",
    "cuisine": [
      "American"
    ],
    "category": "restaurants",
    "price_range": "$$",
    "address": "1260 LEXINGTON AVENUE",
    "city": "New York",
    "state": "NY",
    "neighborhood": "SoHo",
    "latitude": 40.778717381856,
    "longitude": -73.956162018562,
    "phone": "2129833747",
    "grade": null,
    "tags": [],
    "rating": 6.5,
    "rating_count": 250
  },
  {
    "name": "JOE'S PIZZA",
    "cuisine": [
      "Pizza",
      "Italian"
    ],
    "category": "restaurants",
    "price_range": "$",
    "address": "150 EAST   14 STREET",
    "city": "New York",
    "state": "NY",
    "neighborhood": "Greenwich Village",
    "latitude": 40.733656184932,
    "longitude": -73.988081826031,
    "phone": "2123889474",
    "grade": "A",
    "tags": [
      "clean",
      "highly-rated",
      "budget-friendly",
      "casual"
    ],
    "rating": 9.5,
    "rating_count": 96
  },
  {
    "name": "MAR (Little Spain Food Court)",
    "cuisine": [
      "Seafood"
    ],
    "category": "restaurants",
    "price_range": "$$$",
    "address": "501 WEST   30 STREET",
    "city": "New York",
    "state": "NY",
    "neighborhood": "Greenwich Village",
    "latitude": 40.752131794857,
    "longitude": -74.001147754922,
    "phone": "6464951242",
    "grade": "N",
    "tags": [],
    "rating": 6.8,
    "rating_count": 107
  },
  {
    "name": "WIDE SHUT",
    "cuisine": [
      "Bottled Beverages"
    ],
    "category": "restaurants",
    "price_range": "$$",
    "address": "90 WEST HOUSTON STREET",
    "city": "New York",
    "state": "NY",
    "neighborhood": "Chelsea",
    "latitude": 40.727014471895,
    "longitude": -74.000072158532,
    "phone": "9175476620",
    "grade": "N",
    "tags": [],
    "rating": 6.1,
    "rating_count": 351
  },
  {
    "name": "MCDONALD'S",
    "cuisine": [
      "Burgers",
      "American"
    ],
    "category": "restaurants",
    "price_range": "$",
    "address": "203-11 NORTHERN BOULEVARD",
    "city": "New York",
    "state": "NY",
    "neighborhood": "Jackson Heights",
    "latitude": 40.7576490691,
    "longitude": -73.779915703781,
    "phone": "7184231577",
    "grade": "A",
    "tags": [
      "clean",
      "highly-rated",
      "budget-friendly",
      "casual"
    ],
    "rating": 8.6,
    "rating_count": 10
  },
  {
    "name": "7 TASY PIZZA & FRIED CHICKEN",
    "cuisine": [
      "Chicken"
    ],
    "category": "restaurants",
    "price_range": "$$",
    "address": "1231 NOSTRAND AVENUE",
    "city": "New York",
    "state": "NY",
    "neighborhood": "Bushwick",
    "latitude": 40.65720135052,
    "longitude": -73.950248499599,
    "phone": "7186760089",
    "grade": "N",
    "tags": [],
    "rating": 5.8,
    "rating_count": 221
  },
  {
    "name": "DEVON & BLAKELY",
    "cuisine": [
      "American"
    ],
    "category": "restaurants",
    "price_range": "$$",
    "address": "185 GREENWICH STREET",
    "city": "New York",
    "state": "NY",
    "neighborhood": "Harlem",
    "latitude": 40.711783119412,
    "longitude": -74.012083781597,
    "phone": "2128260212",
    "grade": "A",
    "tags": [
      "clean",
      "highly-rated"
    ],
    "rating": 8.1,
    "rating_count": 23
  },
  {
    "name": "CHIPOTLE MEXICAN GRILL",
    "cuisine": [
      "Mexican",
      "Latin"
    ],
    "category": "restaurants",
    "price_range": "$$",
    "address": "431 KNICKERBOCKER AVENUE",
    "city": "New York",
    "state": "NY",
    "neighborhood": "Bushwick",
    "latitude": 40.699456167505,
    "longitude": -73.919482844709,
    "phone": "3477865217",
    "grade": null,
    "tags": [],
    "rating": 8.4,
    "rating_count": 444
  },
  {
    "name": "LEFT HAND PATH",
    "cuisine": [
      "American"
    ],
    "category": "restaurants",
    "price_range": "$$",
    "address": "89 WYCKOFF AVENUE",
    "city": "New York",
    "state": "NY",
    "neighborhood": "DUMBO",
    "latitude": 40.705006697048,
    "longitude": -73.920341730539,
    "phone": "3027509689",
    "grade": "A",
    "tags": [
      "clean",
      "highly-rated"
    ],
    "rating": 9.4,
    "rating_count": 323
  },
  {
    "name": "AVOCADO OH SMOOTHIE",
    "cuisine": [
      "Juice, Smoothies, Fruit Salads"
    ],
    "category": "restaurants",
    "price_range": "$$",
    "address": "239 9 AVENUE",
    "city": "New York",
    "state": "NY",
    "neighborhood": "Chelsea",
    "latitude": 40.747476684397,
    "longitude": -74.000617145675,
    "phone": "6462842576",
    "grade": null,
    "tags": [],
    "rating": 5.9,
    "rating_count": 351
  },
  {
    "name": "NEW KING WOK",
    "cuisine": [
      "Chinese",
      "Asian"
    ],
    "category": "restaurants",
    "price_range": "$$",
    "address": "35-14 BELL BOULEVARD",
    "city": "New York",
    "state": "NY",
    "neighborhood": "Jackson Heights",
    "latitude": 40.768725742427,
    "longitude": -73.773651351309,
    "phone": "3478860591",
    "grade": "A",
    "tags": [
      "clean",
      "highly-rated"
    ],
    "rating": 9.5,
    "rating_count": 422
  },
  {
    "name": "PIZZERIA PANADERIA MEXICANA",
    "cuisine": [
      "Bakery Products/Desserts"
    ],
    "category": "bakeries",
    "price_range": "$$",
    "address": "76-17 ROOSEVELT AVENUE",
    "city": "New York",
    "state": "NY",
    "neighborhood": "Flushing",
    "latitude": 40.747063755141,
    "longitude": -73.889336695012,
    "phone": "3473393551",
    "grade": "Z",
    "tags": [],
    "rating": 8.7,
    "rating_count": 281
  },
  {
    "name": "DE ISLANDS",
    "cuisine": [
      "Caribbean",
      "Latin"
    ],
    "category": "restaurants",
    "price_range": "$$",
    "address": "8203 FLATLANDS AVENUE",
    "city": "New York",
    "state": "NY",
    "neighborhood": "Crown Heights",
    "latitude": 40.636540098439,
    "longitude": -73.911682854009,
    "phone": "7182413609",
    "grade": "Z",
    "tags": [],
    "rating": 7.4,
    "rating_count": 105
  },
  {
    "name": "MAXIM GARDEN",
    "cuisine": [
      "Chinese",
      "Asian"
    ],
    "category": "restaurants",
    "price_range": "$$",
    "address": "138-61 QUEENS BOULEVARD",
    "city": "New York",
    "state": "NY",
    "neighborhood": "Long Island City",
    "latitude": 40.707361997861,
    "longitude": -73.817388211723,
    "phone": "7186579417",
    "grade": "A",
    "tags": [
      "clean",
      "highly-rated"
    ],
    "rating": 8.3,
    "rating_count": 180
  },
  {
    "name": "THE KUNJIP",
    "cuisine": [
      "Korean",
      "Asian"
    ],
    "category": "restaurants",
    "price_range": "$$",
    "address": "32 WEST   32 STREET",
    "city": "New York",
    "state": "NY",
    "neighborhood": "Greenwich Village",
    "latitude": 40.747786110928,
    "longitude": -73.987029053187,
    "phone": "2122169487",
    "grade": null,
    "tags": [],
    "rating": 7.5,
    "rating_count": 242
  },
  {
    "name": "FOO-HING KITCHEN",
    "cuisine": [
      "Chinese",
      "Asian"
    ],
    "category": "restaurants",
    "price_range": "$$",
    "address": "2895 SEDGWICK AVENUE",
    "city": "New York",
    "state": "NY",
    "neighborhood": "Riverdale",
    "latitude": 40.874944128223,
    "longitude": -73.901261908268,
    "phone": "7188846267",
    "grade": "A",
    "tags": [
      "clean",
      "highly-rated"
    ],
    "rating": 9.1,
    "rating_count": 343
  },
  {
    "name": "FOR ALL THINGS GOOD",
    "cuisine": [
      "Mexican",
      "Latin"
    ],
    "category": "restaurants",
    "price_range": "$$",
    "address": "343 FRANKLIN AVENUE",
    "city": "New York",
    "state": "NY",
    "neighborhood": "Park Slope",
    "latitude": 40.687613449355,
    "longitude": -73.956954119501,
    "phone": "6469246274",
    "grade": null,
    "tags": [],
    "rating": 5,
    "rating_count": 297
  },
  {
    "name": "GRANDMA'S DIM SUM",
    "cuisine": [
      "Chinese",
      "Asian"
    ],
    "category": "restaurants",
    "price_range": "$$",
    "address": "40-24 COLLEGE POINT BOULEVARD",
    "city": "New York",
    "state": "NY",
    "neighborhood": "Long Island City",
    "latitude": 40.757688085016,
    "longitude": -73.834128206733,
    "phone": "7188883326",
    "grade": "A",
    "tags": [
      "clean",
      "highly-rated"
    ],
    "rating": 9.5,
    "rating_count": 91
  },
  {
    "name": "FABRIQUE",
    "cuisine": [
      "Bakery Products/Desserts"
    ],
    "category": "bakeries",
    "price_range": "$$",
    "address": "348 WEST   14 STREET",
    "city": "New York",
    "state": "NY",
    "neighborhood": "Upper West Side",
    "latitude": 40.740370425783,
    "longitude": -74.004027256324,
    "phone": "9143304216",
    "grade": null,
    "tags": [],
    "rating": 6.2,
    "rating_count": 332
  },
  {
    "name": "DOMINO'S",
    "cuisine": [
      "Pizza",
      "Italian"
    ],
    "category": "restaurants",
    "price_range": "$",
    "address": "138-57 QUEENS BOULEVARD",
    "city": "New York",
    "state": "NY",
    "neighborhood": "Long Island City",
    "latitude": 40.707460924227,
    "longitude": -73.817460077116,
    "phone": "7187393334",
    "grade": null,
    "tags": [
      "budget-friendly",
      "casual"
    ],
    "rating": 5.8,
    "rating_count": 191
  },
  {
    "name": "EL CONDE BAR & GRILL",
    "cuisine": [
      "Latin American"
    ],
    "category": "restaurants",
    "price_range": "$$",
    "address": "1261 SAINT NICHOLAS AVENUE",
    "city": "New York",
    "state": "NY",
    "neighborhood": "Greenwich Village",
    "latitude": 40.844190122772,
    "longitude": -73.937486953609,
    "phone": "6462405505",
    "grade": "A",
    "tags": [
      "clean",
      "highly-rated"
    ],
    "rating": 8.4,
    "rating_count": 406
  },
  {
    "name": "SEOUL BAP",
    "cuisine": [
      "Korean",
      "Asian"
    ],
    "category": "restaurants",
    "price_range": "$$",
    "address": "55 WEST   27 STREET",
    "city": "New York",
    "state": "NY",
    "neighborhood": "Midtown",
    "latitude": 40.7449592923,
    "longitude": -73.989869811679,
    "phone": "6469645937",
    "grade": "N",
    "tags": [],
    "rating": 7.9,
    "rating_count": 95
  },
  {
    "name": "LEGENDARY JUICE BAR",
    "cuisine": [
      "Juice, Smoothies, Fruit Salads"
    ],
    "category": "restaurants",
    "price_range": "$$",
    "address": "2304 AMSTERDAM AVENUE",
    "city": "New York",
    "state": "NY",
    "neighborhood": "Greenwich Village",
    "latitude": 40.843803936519,
    "longitude": -73.93404651748,
    "phone": "6464787571",
    "grade": null,
    "tags": [],
    "rating": 7.3,
    "rating_count": 403
  },
  {
    "name": "HAMILTON'S",
    "cuisine": [
      "American"
    ],
    "category": "restaurants",
    "price_range": "$$",
    "address": "2826 FORT HAMILTON PARKWAY",
    "city": "New York",
    "state": "NY",
    "neighborhood": "Brooklyn Heights",
    "latitude": 40.649044103178,
    "longitude": -73.97690032141,
    "phone": "7184380488",
    "grade": null,
    "tags": [],
    "rating": 5.5,
    "rating_count": 163
  },
  {
    "name": "TACO BELL",
    "cuisine": [
      "Tex-Mex"
    ],
    "category": "restaurants",
    "price_range": "$$",
    "address": "2471 HYLAN BOULEVARD",
    "city": "New York",
    "state": "NY",
    "neighborhood": "Stapleton",
    "latitude": 40.570951768371,
    "longitude": -74.109279776276,
    "phone": "9174260321",
    "grade": "A",
    "tags": [
      "clean",
      "highly-rated"
    ],
    "rating": 8.6,
    "rating_count": 272
  },
  {
    "name": "CHIPOTLE MEXICAN GRILL",
    "cuisine": [
      "Tex-Mex"
    ],
    "category": "restaurants",
    "price_range": "$$",
    "address": "117 EAST   14 STREET",
    "city": "New York",
    "state": "NY",
    "neighborhood": "SoHo",
    "latitude": 40.734073483813,
    "longitude": -73.989030736717,
    "phone": "2122600641",
    "grade": "A",
    "tags": [
      "clean",
      "highly-rated"
    ],
    "rating": 9.4,
    "rating_count": 485
  },
  {
    "name": "LUNETTA PIZZA",
    "cuisine": [
      "Pizza",
      "Italian"
    ],
    "category": "restaurants",
    "price_range": "$",
    "address": "1162 1 AVENUE",
    "city": "New York",
    "state": "NY",
    "neighborhood": "Chelsea",
    "latitude": 40.762524662582,
    "longitude": -73.95982950357,
    "phone": "2012322491",
    "grade": "A",
    "tags": [
      "clean",
      "highly-rated",
      "budget-friendly",
      "casual"
    ],
    "rating": 8.6,
    "rating_count": 362
  },
  {
    "name": "PARIS BAGUETTE",
    "cuisine": [
      "Bakery Products/Desserts"
    ],
    "category": "bakeries",
    "price_range": "$$",
    "address": "6 WEST   32 STREET",
    "city": "New York",
    "state": "NY",
    "neighborhood": "Harlem",
    "latitude": 40.74737428198,
    "longitude": -73.986051085599,
    "phone": "2122440404",
    "grade": null,
    "tags": [],
    "rating": 5.5,
    "rating_count": 118
  },
  {
    "name": "SWEETGREEN",
    "cuisine": [
      "Salads"
    ],
    "category": "restaurants",
    "price_range": "$$",
    "address": "32 GANSEVOORT STREET",
    "city": "New York",
    "state": "NY",
    "neighborhood": "Financial District",
    "latitude": 40.739401446475,
    "longitude": -74.0058387147,
    "phone": "2016603960",
    "grade": "A",
    "tags": [
      "clean",
      "highly-rated"
    ],
    "rating": 8,
    "rating_count": 101
  },
  {
    "name": "TAIWAN STATION",
    "cuisine": [
      "Asian/Asian Fusion"
    ],
    "category": "restaurants",
    "price_range": "$$",
    "address": "5510 7 AVENUE",
    "city": "New York",
    "state": "NY",
    "neighborhood": "Bushwick",
    "latitude": 40.639518946306,
    "longitude": -74.008961102643,
    "phone": "7184153925",
    "grade": "A",
    "tags": [
      "clean",
      "highly-rated"
    ],
    "rating": 8.5,
    "rating_count": 95
  },
  {
    "name": "CHICKEN RANCH",
    "cuisine": [
      "Chicken"
    ],
    "category": "restaurants",
    "price_range": "$$",
    "address": "315 AUDUBON AVENUE",
    "city": "New York",
    "state": "NY",
    "neighborhood": "Financial District",
    "latitude": 40.848532199375,
    "longitude": -73.932469484537,
    "phone": "6469228564",
    "grade": "A",
    "tags": [
      "clean",
      "highly-rated"
    ],
    "rating": 9.1,
    "rating_count": 253
  },
  {
    "name": "JARTO'E SAZON",
    "cuisine": [
      "Latin American"
    ],
    "category": "restaurants",
    "price_range": "$$",
    "address": "554 WEST  181 STREET",
    "city": "New York",
    "state": "NY",
    "neighborhood": "Upper West Side",
    "latitude": 40.84894689122,
    "longitude": -73.932873893386,
    "phone": "5705355872",
    "grade": "N",
    "tags": [],
    "rating": 5.4,
    "rating_count": 473
  },
  {
    "name": "MISS KOREA",
    "cuisine": [
      "Korean",
      "Asian"
    ],
    "category": "restaurants",
    "price_range": "$$",
    "address": "10 WEST   32 STREET",
    "city": "New York",
    "state": "NY",
    "neighborhood": "Lower East Side",
    "latitude": 40.747437429821,
    "longitude": -73.986202651877,
    "phone": "2125944963",
    "grade": "A",
    "tags": [
      "clean",
      "highly-rated"
    ],
    "rating": 9.2,
    "rating_count": 464
  },
  {
    "name": "ONCHEON",
    "cuisine": [
      "Korean",
      "Asian"
    ],
    "category": "restaurants",
    "price_range": "$$",
    "address": "312 5 AVENUE",
    "city": "New York",
    "state": "NY",
    "neighborhood": "Chelsea",
    "latitude": 40.74691311625,
    "longitude": -73.985679454661,
    "phone": "2019125017",
    "grade": null,
    "tags": [],
    "rating": 7.9,
    "rating_count": 326
  },
  {
    "name": "PASQUALE JONES",
    "cuisine": [
      "Italian"
    ],
    "category": "restaurants",
    "price_range": "$$$",
    "address": "86 KENMARE STREET",
    "city": "New York",
    "state": "NY",
    "neighborhood": "Greenwich Village",
    "latitude": 40.721198264005,
    "longitude": -73.996706251601,
    "phone": "9174535947",
    "grade": "A",
    "tags": [
      "clean",
      "highly-rated"
    ],
    "rating": 8.7,
    "rating_count": 324
  },
  {
    "name": "CHARLIE'S PIZZA",
    "cuisine": [
      "Pizza",
      "Italian"
    ],
    "category": "restaurants",
    "price_range": "$",
    "address": "1501 ST NICHOLAS AVENUE",
    "city": "New York",
    "state": "NY",
    "neighborhood": "SoHo",
    "latitude": 40.851894138017,
    "longitude": -73.931858783836,
    "phone": "2127819089",
    "grade": "A",
    "tags": [
      "clean",
      "highly-rated",
      "budget-friendly",
      "casual"
    ],
    "rating": 9.2,
    "rating_count": 473
  },
  {
    "name": "FIGO",
    "cuisine": [
      "Frozen Desserts"
    ],
    "category": "dessert",
    "price_range": "$$",
    "address": "29-02 23 AVENUE",
    "city": "New York",
    "state": "NY",
    "neighborhood": "Astoria",
    "latitude": 40.774941243244,
    "longitude": -73.913715462402,
    "phone": "3477384647",
    "grade": null,
    "tags": [],
    "rating": 7.5,
    "rating_count": 355
  },
  {
    "name": "BOWL 360 ASTORIA",
    "cuisine": [
      "American"
    ],
    "category": "restaurants",
    "price_range": "$$",
    "address": "19-45 49 STREET",
    "city": "New York",
    "state": "NY",
    "neighborhood": "Long Island City",
    "latitude": 40.773371869404,
    "longitude": -73.894730147041,
    "phone": "7182741910",
    "grade": "A",
    "tags": [
      "clean",
      "highly-rated"
    ],
    "rating": 8.8,
    "rating_count": 306
  },
  {
    "name": "The Celtic Rail NYC",
    "cuisine": [
      "American"
    ],
    "category": "restaurants",
    "price_range": "$$",
    "address": "137 WEST   33 STREET",
    "city": "New York",
    "state": "NY",
    "neighborhood": "Financial District",
    "latitude": 40.749614365755,
    "longitude": -73.989403520042,
    "phone": "9147742673",
    "grade": null,
    "tags": [],
    "rating": 5.3,
    "rating_count": 289
  },
  {
    "name": "NEW WOK",
    "cuisine": [
      "Chinese",
      "Asian"
    ],
    "category": "restaurants",
    "price_range": "$$",
    "address": "481 BROOK AVENUE",
    "city": "New York",
    "state": "NY",
    "neighborhood": "Fordham",
    "latitude": 40.813333686514,
    "longitude": -73.915887260644,
    "phone": "7182925132",
    "grade": null,
    "tags": [],
    "rating": 7.8,
    "rating_count": 174
  },
  {
    "name": "ACADEMY CAFE",
    "cuisine": [
      "American"
    ],
    "category": "restaurants",
    "price_range": "$$",
    "address": "30-29 COLLEGE POINT BOULEVARD",
    "city": "New York",
    "state": "NY",
    "neighborhood": "Flushing",
    "latitude": 40.770581776434,
    "longitude": -73.843031466434,
    "phone": "9173853856",
    "grade": null,
    "tags": [],
    "rating": 9.2,
    "rating_count": 375
  },
  {
    "name": "34th BAGELS AND MORE",
    "cuisine": [
      "Bakery",
      "Breakfast"
    ],
    "category": "bakeries",
    "price_range": "$",
    "address": "365 WEST   34 STREET",
    "city": "New York",
    "state": "NY",
    "neighborhood": "Upper West Side",
    "latitude": 40.752916701024,
    "longitude": -73.995185147241,
    "phone": "6462384868",
    "grade": "A",
    "tags": [
      "clean",
      "highly-rated",
      "budget-friendly"
    ],
    "rating": 9.5,
    "rating_count": 94
  },
  {
    "name": "GREEN FITNESS STUDIO",
    "cuisine": [
      "Juice, Smoothies, Fruit Salads"
    ],
    "category": "restaurants",
    "price_range": "$$",
    "address": "232 VARET STREET",
    "city": "New York",
    "state": "NY",
    "neighborhood": "Park Slope",
    "latitude": 40.704035599388,
    "longitude": -73.934192544312,
    "phone": "3475990047",
    "grade": "A",
    "tags": [
      "clean",
      "highly-rated"
    ],
    "rating": 8.5,
    "rating_count": 85
  },
  {
    "name": "LINCOLN FRIED CHICKEN",
    "cuisine": [
      "Chicken"
    ],
    "category": "restaurants",
    "price_range": "$$",
    "address": "1487 WESTCHESTER AVENUE",
    "city": "New York",
    "state": "NY",
    "neighborhood": "Fordham",
    "latitude": 40.828464483493,
    "longitude": -73.880687498358,
    "phone": "3476385402",
    "grade": null,
    "tags": [],
    "rating": 5.7,
    "rating_count": 201
  },
  {
    "name": "MAMA TACO",
    "cuisine": [
      "Spanish",
      "European"
    ],
    "category": "restaurants",
    "price_range": "$$",
    "address": "880 FLUSHING AVENUE",
    "city": "New York",
    "state": "NY",
    "neighborhood": "Park Slope",
    "latitude": 40.701992092978,
    "longitude": -73.936585723974,
    "phone": "9175728411",
    "grade": null,
    "tags": [],
    "rating": 5.3,
    "rating_count": 170
  },
  {
    "name": "PARRILLA LATINA SPORTS BAR",
    "cuisine": [
      "Latin American"
    ],
    "category": "restaurants",
    "price_range": "$$",
    "address": "614 MELROSE AVENUE",
    "city": "New York",
    "state": "NY",
    "neighborhood": "Fordham",
    "latitude": 40.817610849158,
    "longitude": -73.917056012909,
    "phone": "7189935894",
    "grade": null,
    "tags": [],
    "rating": 7.4,
    "rating_count": 230
  },
  {
    "name": "ROSA'S BAKERY",
    "cuisine": [
      "Bakery Products/Desserts"
    ],
    "category": "bakeries",
    "price_range": "$$",
    "address": "5824 4 AVENUE",
    "city": "New York",
    "state": "NY",
    "neighborhood": "Greenpoint",
    "latitude": 40.64180711877,
    "longitude": -74.017429170005,
    "phone": "7184921470",
    "grade": "A",
    "tags": [
      "clean",
      "highly-rated"
    ],
    "rating": 8.8,
    "rating_count": 127
  },
  {
    "name": "L'ARGOT",
    "cuisine": [
      "Italian"
    ],
    "category": "restaurants",
    "price_range": "$$$",
    "address": "142 HAMILTON PLACE",
    "city": "New York",
    "state": "NY",
    "neighborhood": "Lower East Side",
    "latitude": 40.82429900582,
    "longitude": -73.948565786336,
    "phone": "6468580312",
    "grade": null,
    "tags": [],
    "rating": 6.9,
    "rating_count": 243
  },
  {
    "name": "GJELINA",
    "cuisine": [
      "American"
    ],
    "category": "restaurants",
    "price_range": "$$",
    "address": "45 BOND STREET",
    "city": "New York",
    "state": "NY",
    "neighborhood": "Financial District",
    "latitude": 40.726050842121,
    "longitude": -73.992946605895,
    "phone": "9172515416",
    "grade": "A",
    "tags": [
      "clean",
      "highly-rated"
    ],
    "rating": 9.1,
    "rating_count": 276
  },
  {
    "name": "MANGO MANGO ARTISAN LAB",
    "cuisine": [
      "Asian/Asian Fusion"
    ],
    "category": "restaurants",
    "price_range": "$$",
    "address": "19 SAINT MARKS PLACE",
    "city": "New York",
    "state": "NY",
    "neighborhood": "Greenwich Village",
    "latitude": 40.7290779884,
    "longitude": -73.988793431631,
    "phone": "9172615353",
    "grade": "A",
    "tags": [
      "clean",
      "highly-rated"
    ],
    "rating": 8,
    "rating_count": 385
  },
  {
    "name": "KENNEDY FRIED CHICKEN",
    "cuisine": [
      "Chicken"
    ],
    "category": "restaurants",
    "price_range": "$$",
    "address": "1798 WESTCHESTER AVENUE",
    "city": "New York",
    "state": "NY",
    "neighborhood": "Fordham",
    "latitude": 40.831822145991,
    "longitude": -73.866487093377,
    "phone": "7186843536",
    "grade": "Z",
    "tags": [],
    "rating": 5.1,
    "rating_count": 157
  },
  {
    "name": "CUT BY WOLFGANG PUCK",
    "cuisine": [
      "Steakhouse",
      "American"
    ],
    "category": "coffee_tea",
    "price_range": "$$$$",
    "address": "99 CHURCH STREET",
    "city": "New York",
    "state": "NY",
    "neighborhood": "Greenwich Village",
    "latitude": 40.712941656837,
    "longitude": -74.009479621518,
    "phone": "6462388405",
    "grade": null,
    "tags": [
      "special-occasion",
      "upscale"
    ],
    "rating": 7.5,
    "rating_count": 312
  },
  {
    "name": "ARTICHOKE BASILLE'S PIZZA",
    "cuisine": [
      "Pizza",
      "Italian"
    ],
    "category": "restaurants",
    "price_range": "$",
    "address": "321 EAST   14 STREET",
    "city": "New York",
    "state": "NY",
    "neighborhood": "Greenwich Village",
    "latitude": 40.731995117718,
    "longitude": -73.984087849803,
    "phone": "2122282004",
    "grade": null,
    "tags": [
      "budget-friendly",
      "casual"
    ],
    "rating": 7.9,
    "rating_count": 330
  },
  {
    "name": "CHA CHA MATCHA",
    "cuisine": [
      "Coffee/Tea"
    ],
    "category": "coffee_tea",
    "price_range": "$$",
    "address": "922 BROADWAY",
    "city": "New York",
    "state": "NY",
    "neighborhood": "Midtown",
    "latitude": 40.739966539639,
    "longitude": -73.989542188324,
    "phone": "9179575017",
    "grade": "A",
    "tags": [
      "clean",
      "highly-rated"
    ],
    "rating": 8,
    "rating_count": 488
  },
  {
    "name": "THE GRAHAM PIZZA & CHICKEN",
    "cuisine": [
      "Chicken"
    ],
    "category": "restaurants",
    "price_range": "$$",
    "address": "77 VARET STREET",
    "city": "New York",
    "state": "NY",
    "neighborhood": "Park Slope",
    "latitude": 40.703087465304,
    "longitude": -73.942171344024,
    "phone": "3476547738",
    "grade": "A",
    "tags": [
      "clean",
      "highly-rated"
    ],
    "rating": 8.6,
    "rating_count": 448
  },
  {
    "name": "YOSSIS BAKERY",
    "cuisine": [
      "Kosher",
      "Jewish"
    ],
    "category": "restaurants",
    "price_range": "$$",
    "address": "5719 18 AVENUE",
    "city": "New York",
    "state": "NY",
    "neighborhood": "Bushwick",
    "latitude": 40.623587681818,
    "longitude": -73.985680800924,
    "phone": "7182347629",
    "grade": "N",
    "tags": [],
    "rating": 9.1,
    "rating_count": 310
  },
  {
    "name": "BUFFALO WILD WINGS GO",
    "cuisine": [
      "American"
    ],
    "category": "restaurants",
    "price_range": "$$",
    "address": "179-19 HILLSIDE AVENUE",
    "city": "New York",
    "state": "NY",
    "neighborhood": "Flushing",
    "latitude": 40.712677676636,
    "longitude": -73.783700781662,
    "phone": "3474140884",
    "grade": "A",
    "tags": [
      "clean",
      "highly-rated"
    ],
    "rating": 8.1,
    "rating_count": 214
  },
  {
    "name": "CHA CHA MATCHA",
    "cuisine": [
      "Coffee/Tea"
    ],
    "category": "coffee_tea",
    "price_range": "$$",
    "address": "501 5 AVENUE",
    "city": "New York",
    "state": "NY",
    "neighborhood": "Upper West Side",
    "latitude": 40.753307728589,
    "longitude": -73.980993130264,
    "phone": "7033719738",
    "grade": null,
    "tags": [],
    "rating": 5.3,
    "rating_count": 479
  },
  {
    "name": "PINK METAL",
    "cuisine": [
      "American"
    ],
    "category": "restaurants",
    "price_range": "$$",
    "address": "253 BUSHWICK AVENUE",
    "city": "New York",
    "state": "NY",
    "neighborhood": "DUMBO",
    "latitude": 40.707304941965,
    "longitude": -73.939769111603,
    "phone": "3474538138",
    "grade": "A",
    "tags": [
      "clean",
      "highly-rated"
    ],
    "rating": 8.4,
    "rating_count": 106
  },
  {
    "name": "DENNY'S PUB",
    "cuisine": [
      "American"
    ],
    "category": "restaurants",
    "price_range": "$$",
    "address": "106 BEVERLY ROAD",
    "city": "New York",
    "state": "NY",
    "neighborhood": "Brooklyn Heights",
    "latitude": 40.642931856285,
    "longitude": -73.978869881609,
    "phone": "7184352156",
    "grade": null,
    "tags": [],
    "rating": 7.4,
    "rating_count": 506
  },
  {
    "name": "Auntie Anne's",
    "cuisine": [
      "Hotdogs/Pretzels"
    ],
    "category": "restaurants",
    "price_range": "$$",
    "address": "200 BAYCHESTER AVENUE",
    "city": "New York",
    "state": "NY",
    "neighborhood": "Fordham",
    "latitude": 40.865905409786,
    "longitude": -73.830429747919,
    "phone": "5167290848",
    "grade": "A",
    "tags": [
      "clean",
      "highly-rated"
    ],
    "rating": 8.8,
    "rating_count": 416
  },
  {
    "name": "BIRD DOG",
    "cuisine": [
      "Italian"
    ],
    "category": "restaurants",
    "price_range": "$$$",
    "address": "525 HUDSON STREET",
    "city": "New York",
    "state": "NY",
    "neighborhood": "Midtown",
    "latitude": 40.734051879716,
    "longitude": -74.006253199687,
    "phone": "6469921459",
    "grade": "N",
    "tags": [],
    "rating": 7.2,
    "rating_count": 323
  },
  {
    "name": "UGLY DONUTS & CORN DOGS CAFE",
    "cuisine": [
      "Korean",
      "Asian"
    ],
    "category": "restaurants",
    "price_range": "$$",
    "address": "398 KNICKERBOCKER AVENUE",
    "city": "New York",
    "state": "NY",
    "neighborhood": "Crown Heights",
    "latitude": 40.700005823802,
    "longitude": -73.920488380874,
    "phone": "3472401460",
    "grade": null,
    "tags": [],
    "rating": 7.9,
    "rating_count": 409
  },
  {
    "name": "SONIC",
    "cuisine": [
      "Burgers",
      "American"
    ],
    "category": "restaurants",
    "price_range": "$",
    "address": "730 BROADWAY",
    "city": "New York",
    "state": "NY",
    "neighborhood": "DUMBO",
    "latitude": 40.701108690528,
    "longitude": -73.94258060385,
    "phone": "5166979983",
    "grade": "A",
    "tags": [
      "clean",
      "highly-rated",
      "budget-friendly",
      "casual"
    ],
    "rating": 8.1,
    "rating_count": 456
  },
  {
    "name": "BED STUY FISH FRY",
    "cuisine": [
      "Caribbean",
      "Latin"
    ],
    "category": "restaurants",
    "price_range": "$$",
    "address": "2214 BARTOW AVENUE",
    "city": "New York",
    "state": "NY",
    "neighborhood": "Riverdale",
    "latitude": 40.868913291613,
    "longitude": -73.822919548742,
    "phone": "3472086154",
    "grade": "A",
    "tags": [
      "clean",
      "highly-rated"
    ],
    "rating": 9,
    "rating_count": 234
  },
  {
    "name": "LE CAFE COFFEE",
    "cuisine": [
      "Coffee/Tea"
    ],
    "category": "coffee_tea",
    "price_range": "$$",
    "address": "7 EAST   14 STREET",
    "city": "New York",
    "state": "NY",
    "neighborhood": "Harlem",
    "latitude": 40.735852416673,
    "longitude": -73.993245062113,
    "phone": "2123651060",
    "grade": null,
    "tags": [],
    "rating": 7.4,
    "rating_count": 427
  },
  {
    "name": "OAKBERRY",
    "cuisine": [
      "Juice, Smoothies, Fruit Salads"
    ],
    "category": "restaurants",
    "price_range": "$$",
    "address": "1158 BROADWAY",
    "city": "New York",
    "state": "NY",
    "neighborhood": "SoHo",
    "latitude": 40.744481575862,
    "longitude": -73.988512947151,
    "phone": "3472737271",
    "grade": null,
    "tags": [],
    "rating": 5.9,
    "rating_count": 81
  },
  {
    "name": "ONIGIRI TANAKAYA",
    "cuisine": [
      "Japanese",
      "Asian"
    ],
    "category": "restaurants",
    "price_range": "$$$",
    "address": "171 3 AVENUE",
    "city": "New York",
    "state": "NY",
    "neighborhood": "Midtown",
    "latitude": 40.734784057145,
    "longitude": -73.986075381503,
    "phone": "9173962386",
    "grade": "A",
    "tags": [
      "clean",
      "highly-rated",
      "fresh-fish"
    ],
    "rating": 8.9,
    "rating_count": 404
  },
  {
    "name": "TACO BELL",
    "cuisine": [
      "Tex-Mex"
    ],
    "category": "restaurants",
    "price_range": "$$",
    "address": "321 1 AVENUE",
    "city": "New York",
    "state": "NY",
    "neighborhood": "SoHo",
    "latitude": 40.734132718606,
    "longitude": -73.980399640897,
    "phone": "3323330642",
    "grade": "A",
    "tags": [
      "clean",
      "highly-rated"
    ],
    "rating": 9.3,
    "rating_count": 284
  },
  {
    "name": "ZERO BOND",
    "cuisine": [
      "American"
    ],
    "category": "restaurants",
    "price_range": "$$",
    "address": "670 BROADWAY",
    "city": "New York",
    "state": "NY",
    "neighborhood": "Midtown",
    "latitude": 40.727291592158,
    "longitude": -73.995183397893,
    "phone": "2129603484",
    "grade": "A",
    "tags": [
      "clean",
      "highly-rated"
    ],
    "rating": 8.1,
    "rating_count": 284
  },
  {
    "name": "PANDA EXPRESS",
    "cuisine": [
      "Chinese",
      "Asian"
    ],
    "category": "restaurants",
    "price_range": "$$",
    "address": "1 WEST FORDHAM ROAD",
    "city": "New York",
    "state": "NY",
    "neighborhood": "Fordham",
    "latitude": 40.862776742241,
    "longitude": -73.901258351055,
    "phone": "7189330088",
    "grade": "A",
    "tags": [
      "clean",
      "highly-rated"
    ],
    "rating": 9.4,
    "rating_count": 247
  },
  {
    "name": "RSL DREAM LOUNGE",
    "cuisine": [
      "American"
    ],
    "category": "restaurants",
    "price_range": "$$",
    "address": "598 GRAND CONCOURSE",
    "city": "New York",
    "state": "NY",
    "neighborhood": "Riverdale",
    "latitude": 40.819780280401,
    "longitude": -73.926721624522,
    "phone": "9177052759",
    "grade": "N",
    "tags": [],
    "rating": 5.1,
    "rating_count": 98
  },
  {
    "name": "COCO FRESH TEA & JUICE",
    "cuisine": [
      "Coffee/Tea"
    ],
    "category": "coffee_tea",
    "price_range": "$$",
    "address": "38 LEXINGTON AVENUE",
    "city": "New York",
    "state": "NY",
    "neighborhood": "Upper West Side",
    "latitude": 40.74006750352,
    "longitude": -73.984338519031,
    "phone": "2128516618",
    "grade": "A",
    "tags": [
      "clean",
      "highly-rated"
    ],
    "rating": 8.2,
    "rating_count": 490
  },
  {
    "name": "FOLK",
    "cuisine": [
      "American"
    ],
    "category": "restaurants",
    "price_range": "$$",
    "address": "689 6 AVENUE",
    "city": "New York",
    "state": "NY",
    "neighborhood": "Crown Heights",
    "latitude": 40.660648224453,
    "longitude": -73.990542255733,
    "phone": "3473343130",
    "grade": "N",
    "tags": [],
    "rating": 8.1,
    "rating_count": 470
  },
  {
    "name": "ALYTORI RESTAURANT",
    "cuisine": [
      "Chicken"
    ],
    "category": "restaurants",
    "price_range": "$$",
    "address": "124 GRAHAM AVENUE",
    "city": "New York",
    "state": "NY",
    "neighborhood": "Greenpoint",
    "latitude": 40.705563616704,
    "longitude": -73.942904967138,
    "phone": "9175182169",
    "grade": "A",
    "tags": [
      "clean",
      "highly-rated"
    ],
    "rating": 9.4,
    "rating_count": 239
  },
  {
    "name": "WENDY'S RESTAURANT #19406",
    "cuisine": [
      "Sandwiches",
      "American"
    ],
    "category": "restaurants",
    "price_range": "$",
    "address": "342 EAST FORDHAM ROAD",
    "city": "New York",
    "state": "NY",
    "neighborhood": "Pelham Bay",
    "latitude": 40.861869303222,
    "longitude": -73.893241027428,
    "phone": "7187750484",
    "grade": null,
    "tags": [
      "budget-friendly"
    ],
    "rating": 8.3,
    "rating_count": 436
  },
  {
    "name": "POPEYES LOUISIANA KITCHEN",
    "cuisine": [
      "American"
    ],
    "category": "restaurants",
    "price_range": "$$",
    "address": "62-59 FRESH POND ROAD",
    "city": "New York",
    "state": "NY",
    "neighborhood": "Forest Hills",
    "latitude": 40.712522846885,
    "longitude": -73.900497044763,
    "phone": "9732042800",
    "grade": "A",
    "tags": [
      "clean",
      "highly-rated"
    ],
    "rating": 8.1,
    "rating_count": 221
  },
  {
    "name": "POTBELLY SANDWICH SHOP",
    "cuisine": [
      "American"
    ],
    "category": "restaurants",
    "price_range": "$$",
    "address": "333 7 AVENUE",
    "city": "New York",
    "state": "NY",
    "neighborhood": "Harlem",
    "latitude": 40.747621948517,
    "longitude": -73.993059802739,
    "phone": "2129180232",
    "grade": "A",
    "tags": [
      "clean",
      "highly-rated"
    ],
    "rating": 8.7,
    "rating_count": 252
  },
  {
    "name": "E&Aâ€™S BAKE N BREW",
    "cuisine": [
      "Coffee/Tea"
    ],
    "category": "coffee_tea",
    "price_range": "$$",
    "address": "54 NOLL STREET",
    "city": "New York",
    "state": "NY",
    "neighborhood": "Williamsburg",
    "latitude": 40.700547006598,
    "longitude": -73.934214033646,
    "phone": "9295059985",
    "grade": "A",
    "tags": [
      "clean",
      "highly-rated"
    ],
    "rating": 8.8,
    "rating_count": 241
  },
  {
    "name": "MISS BARB'S",
    "cuisine": [
      "Coffee/Tea"
    ],
    "category": "coffee_tea",
    "price_range": "$$",
    "address": "1038 NOSTRAND AVENUE",
    "city": "New York",
    "state": "NY",
    "neighborhood": "Crown Heights",
    "latitude": 40.662905274878,
    "longitude": -73.950882215956,
    "phone": "6469828032",
    "grade": "A",
    "tags": [
      "clean",
      "highly-rated"
    ],
    "rating": 8.1,
    "rating_count": 506
  },
  {
    "name": "CHIPOTLE MEXICAN GRILL",
    "cuisine": [
      "Tex-Mex"
    ],
    "category": "restaurants",
    "price_range": "$$",
    "address": "275 GREENWICH STREET",
    "city": "New York",
    "state": "NY",
    "neighborhood": "SoHo",
    "latitude": 40.715214166354,
    "longitude": -74.011240301245,
    "phone": "6464123981",
    "grade": "A",
    "tags": [
      "clean",
      "highly-rated"
    ],
    "rating": 8.9,
    "rating_count": 195
  },
  {
    "name": "XIANG ZHI RESTAURANT",
    "cuisine": [
      "Chinese",
      "Asian"
    ],
    "category": "restaurants",
    "price_range": "$$",
    "address": "5322 7 AVENUE",
    "city": "New York",
    "state": "NY",
    "neighborhood": "DUMBO",
    "latitude": 40.64058949285,
    "longitude": -74.007847847158,
    "phone": "7184362039",
    "grade": "A",
    "tags": [
      "clean",
      "highly-rated"
    ],
    "rating": 9.3,
    "rating_count": 252
  },
  {
    "name": "YURA",
    "cuisine": [
      "American"
    ],
    "category": "restaurants",
    "price_range": "$$",
    "address": "1350 MADISON AVENUE",
    "city": "New York",
    "state": "NY",
    "neighborhood": "Financial District",
    "latitude": 40.786407640277,
    "longitude": -73.954770250973,
    "phone": "2128609872",
    "grade": "A",
    "tags": [
      "clean",
      "highly-rated"
    ],
    "rating": 9.5,
    "rating_count": 232
  },
  {
    "name": "STARBUCKS",
    "cuisine": [
      "Coffee/Tea"
    ],
    "category": "coffee_tea",
    "price_range": "$$",
    "address": "240 PARK AVENUE SOUTH",
    "city": "New York",
    "state": "NY",
    "neighborhood": "Lower East Side",
    "latitude": 40.737968201829,
    "longitude": -73.988008881315,
    "phone": "2123751415",
    "grade": "A",
    "tags": [
      "clean",
      "highly-rated"
    ],
    "rating": 8.2,
    "rating_count": 92
  },
  {
    "name": "BRIARWOOD CAFE",
    "cuisine": [
      "American"
    ],
    "category": "restaurants",
    "price_range": "$$",
    "address": "138-49 QUEENS BOULEVARD",
    "city": "New York",
    "state": "NY",
    "neighborhood": "Jackson Heights",
    "latitude": 40.707892345562,
    "longitude": -73.817769084175,
    "phone": "7182977494",
    "grade": "A",
    "tags": [
      "clean",
      "highly-rated"
    ],
    "rating": 9.5,
    "rating_count": 368
  },
  {
    "name": "MADAME BONTE",
    "cuisine": [
      "French",
      "European"
    ],
    "category": "restaurants",
    "price_range": "$$$$",
    "address": "205 EAST   66 STREET",
    "city": "New York",
    "state": "NY",
    "neighborhood": "East Village",
    "latitude": 40.76560802408,
    "longitude": -73.962791467768,
    "phone": "3473873747",
    "grade": "A",
    "tags": [
      "clean",
      "highly-rated",
      "special-occasion",
      "upscale"
    ],
    "rating": 8.1,
    "rating_count": 307
  },
  {
    "name": "HIBISCUS RESTAURANT",
    "cuisine": [
      "Caribbean",
      "Latin"
    ],
    "category": "restaurants",
    "price_range": "$$",
    "address": "124-18 101 AVENUE",
    "city": "New York",
    "state": "NY",
    "neighborhood": "Long Island City",
    "latitude": 40.691193616894,
    "longitude": -73.821575944848,
    "phone": "7188494225",
    "grade": "Z",
    "tags": [],
    "rating": 9.5,
    "rating_count": 143
  },
  {
    "name": "FIREFLY",
    "cuisine": [
      "Korean",
      "Asian"
    ],
    "category": "restaurants",
    "price_range": "$$",
    "address": "194-17 NORTHERN BOULEVARD",
    "city": "New York",
    "state": "NY",
    "neighborhood": "Forest Hills",
    "latitude": 40.75791288799,
    "longitude": -73.787365079803,
    "phone": "7183140888",
    "grade": "A",
    "tags": [
      "clean",
      "highly-rated"
    ],
    "rating": 9.3,
    "rating_count": 274
  },
  {
    "name": "LAKE COMO PIZZA",
    "cuisine": [
      "Kosher",
      "Jewish"
    ],
    "category": "restaurants",
    "price_range": "$$",
    "address": "2549 AMSTERDAM AVENUE",
    "city": "New York",
    "state": "NY",
    "neighborhood": "Midtown",
    "latitude": 40.85151325954,
    "longitude": -73.928396286343,
    "phone": "2127400110",
    "grade": null,
    "tags": [],
    "rating": 5.7,
    "rating_count": 140
  },
  {
    "name": "CHIPOTLE MEXICAN GRILL #2838",
    "cuisine": [
      "Tex-Mex"
    ],
    "category": "restaurants",
    "price_range": "$$",
    "address": "260 EAST  161 STREET",
    "city": "New York",
    "state": "NY",
    "neighborhood": "Fordham",
    "latitude": 40.825678904356,
    "longitude": -73.91881282016,
    "phone": "7186655238",
    "grade": "A",
    "tags": [
      "clean",
      "highly-rated"
    ],
    "rating": 8.7,
    "rating_count": 298
  },
  {
    "name": "PARTEA",
    "cuisine": [
      "Coffee/Tea"
    ],
    "category": "coffee_tea",
    "price_range": "$$",
    "address": "220 EAST   14 STREET",
    "city": "New York",
    "state": "NY",
    "neighborhood": "Chelsea",
    "latitude": 40.733002759252,
    "longitude": -73.986530394944,
    "phone": "7189027168",
    "grade": null,
    "tags": [],
    "rating": 5.1,
    "rating_count": 321
  },
  {
    "name": "BUBBA GUMP SHRIMP CO.",
    "cuisine": [
      "American"
    ],
    "category": "restaurants",
    "price_range": "$$",
    "address": "1501 BROADWAY",
    "city": "New York",
    "state": "NY",
    "neighborhood": "Greenwich Village",
    "latitude": 40.7570962405,
    "longitude": -73.986193424352,
    "phone": "2123917100",
    "grade": null,
    "tags": [],
    "rating": 7.1,
    "rating_count": 136
  },
  {
    "name": "21ST LIC DELI & GROCERY",
    "cuisine": [
      "American"
    ],
    "category": "restaurants",
    "price_range": "$$",
    "address": "43-44 21 STREET",
    "city": "New York",
    "state": "NY",
    "neighborhood": "Forest Hills",
    "latitude": 40.750011222522,
    "longitude": -73.946223261177,
    "phone": "7187862484",
    "grade": null,
    "tags": [],
    "rating": 5.2,
    "rating_count": 250
  },
  {
    "name": "MARCY & MYRTLE COFFEE BAR",
    "cuisine": [
      "Coffee/Tea"
    ],
    "category": "coffee_tea",
    "price_range": "$$",
    "address": "574 MARCY AVENUE",
    "city": "New York",
    "state": "NY",
    "neighborhood": "Williamsburg",
    "latitude": 40.695048591141,
    "longitude": -73.94915271648,
    "phone": "9176620727",
    "grade": "A",
    "tags": [
      "clean",
      "highly-rated"
    ],
    "rating": 8.1,
    "rating_count": 466
  },
  {
    "name": "NEW ASHA SRI LANKAN RESTAURANT",
    "cuisine": [
      "Indian",
      "Asian"
    ],
    "category": "restaurants",
    "price_range": "$$",
    "address": "322 VICTORY BOULEVARD",
    "city": "New York",
    "state": "NY",
    "neighborhood": "Stapleton",
    "latitude": 40.634379461593,
    "longitude": -74.085345485275,
    "phone": "7184200649",
    "grade": "A",
    "tags": [
      "clean",
      "highly-rated"
    ],
    "rating": 8.4,
    "rating_count": 11
  },
  {
    "name": "PANERA BREAD #6366",
    "cuisine": [
      "American"
    ],
    "category": "restaurants",
    "price_range": "$$",
    "address": "46 WEST  225 STREET",
    "city": "New York",
    "state": "NY",
    "neighborhood": "Riverdale",
    "latitude": 40.87365975164,
    "longitude": -73.908068977655,
    "phone": "3473357139",
    "grade": "A",
    "tags": [
      "clean",
      "highly-rated"
    ],
    "rating": 9,
    "rating_count": 456
  },
  {
    "name": "LITTLE POLAND",
    "cuisine": [
      "Polish"
    ],
    "category": "restaurants",
    "price_range": "$$",
    "address": "200 2 AVENUE",
    "city": "New York",
    "state": "NY",
    "neighborhood": "Lower East Side",
    "latitude": 40.731394216196,
    "longitude": -73.985617855678,
    "phone": "2127779728",
    "grade": null,
    "tags": [],
    "rating": 5.3,
    "rating_count": 356
  },
  {
    "name": "JUICY KING CRAB EXPRESS",
    "cuisine": [
      "Seafood"
    ],
    "category": "restaurants",
    "price_range": "$$$",
    "address": "1111 GRANVILLE PAYNE AVENUE",
    "city": "New York",
    "state": "NY",
    "neighborhood": "Bushwick",
    "latitude": 40.653415061216,
    "longitude": -73.886764456829,
    "phone": "3473125895",
    "grade": "A",
    "tags": [
      "clean",
      "highly-rated"
    ],
    "rating": 8,
    "rating_count": 495
  },
  {
    "name": "DON'T CALL ME SHIRLEY",
    "cuisine": [
      "American"
    ],
    "category": "restaurants",
    "price_range": "$$",
    "address": "346 FRANKLIN AVENUE",
    "city": "New York",
    "state": "NY",
    "neighborhood": "Bushwick",
    "latitude": 40.687292294586,
    "longitude": -73.95691105839,
    "phone": "9176271984",
    "grade": "N",
    "tags": [],
    "rating": 6.5,
    "rating_count": 250
  },
  {
    "name": "LE ROCK",
    "cuisine": [
      "French",
      "European"
    ],
    "category": "restaurants",
    "price_range": "$$$$",
    "address": "45 ROCKEFELLER PLAZA",
    "city": "New York",
    "state": "NY",
    "neighborhood": "Chelsea",
    "latitude": 40.75919751131,
    "longitude": -73.978334721093,
    "phone": "2012863978",
    "grade": null,
    "tags": [
      "special-occasion",
      "upscale"
    ],
    "rating": 5.5,
    "rating_count": 478
  },
  {
    "name": "16 HANDLES",
    "cuisine": [
      "Frozen Desserts"
    ],
    "category": "dessert",
    "price_range": "$$",
    "address": "178 8 AVENUE",
    "city": "New York",
    "state": "NY",
    "neighborhood": "Harlem",
    "latitude": 40.742917636188,
    "longitude": -74.000202092303,
    "phone": "9146564534",
    "grade": null,
    "tags": [],
    "rating": 5.6,
    "rating_count": 111
  },
  {
    "name": "HEYTEA",
    "cuisine": [
      "Coffee/Tea"
    ],
    "category": "coffee_tea",
    "price_range": "$$",
    "address": "1565 BROADWAY",
    "city": "New York",
    "state": "NY",
    "neighborhood": "Midtown",
    "latitude": 40.759184876445,
    "longitude": -73.985185890167,
    "phone": "3462607717",
    "grade": "N",
    "tags": [],
    "rating": 6,
    "rating_count": 164
  },
  {
    "name": "CATERINA PIZZA",
    "cuisine": [
      "Pizza",
      "Italian"
    ],
    "category": "restaurants",
    "price_range": "$",
    "address": "3035 FULTON STREET",
    "city": "New York",
    "state": "NY",
    "neighborhood": "DUMBO",
    "latitude": 40.680565085986,
    "longitude": -73.882705360106,
    "phone": "7182772571",
    "grade": "A",
    "tags": [
      "clean",
      "highly-rated",
      "budget-friendly",
      "casual"
    ],
    "rating": 8.3,
    "rating_count": 306
  },
  {
    "name": "CHEUNG KHEI RESTAURANT",
    "cuisine": [
      "Chinese",
      "Asian"
    ],
    "category": "restaurants",
    "price_range": "$$",
    "address": "253-24 UNION TURNPIKE",
    "city": "New York",
    "state": "NY",
    "neighborhood": "Long Island City",
    "latitude": 40.744175060913,
    "longitude": -73.7173103238,
    "phone": "7183439811",
    "grade": "A",
    "tags": [
      "clean",
      "highly-rated"
    ],
    "rating": 8.1,
    "rating_count": 62
  },
  {
    "name": "HUNG FOOD",
    "cuisine": [
      "Chinese",
      "Asian"
    ],
    "category": "restaurants",
    "price_range": "$$",
    "address": "133-35 ROOSEVELT AVENUE",
    "city": "New York",
    "state": "NY",
    "neighborhood": "Long Island City",
    "latitude": 40.758501995257,
    "longitude": -73.833241808988,
    "phone": "9172162393",
    "grade": "N",
    "tags": [],
    "rating": 6.1,
    "rating_count": 354
  },
  {
    "name": "DELIS 48",
    "cuisine": [
      "American"
    ],
    "category": "restaurants",
    "price_range": "$$",
    "address": "48 WEST   48 STREET",
    "city": "New York",
    "state": "NY",
    "neighborhood": "Harlem",
    "latitude": 40.758102670356,
    "longitude": -73.980089352483,
    "phone": "2127689600",
    "grade": "A",
    "tags": [
      "clean",
      "highly-rated"
    ],
    "rating": 8.1,
    "rating_count": 172
  },
  {
    "name": "CHINA DELIGHT",
    "cuisine": [
      "Chinese",
      "Asian"
    ],
    "category": "restaurants",
    "price_range": "$$",
    "address": "99-02 37 AVENUE",
    "city": "New York",
    "state": "NY",
    "neighborhood": "Flushing",
    "latitude": 40.752286490927,
    "longitude": -73.868047528257,
    "phone": "7188988855",
    "grade": null,
    "tags": [],
    "rating": 7.1,
    "rating_count": 243
  },
  {
    "name": "GOLDEN CITY RESTAURANT GAO",
    "cuisine": [
      "Chinese",
      "Asian"
    ],
    "category": "restaurants",
    "price_range": "$$",
    "address": "805 SOUNDVIEW AVENUE",
    "city": "New York",
    "state": "NY",
    "neighborhood": "Fordham",
    "latitude": 40.821207615897,
    "longitude": -73.865966513326,
    "phone": "9177038877",
    "grade": null,
    "tags": [],
    "rating": 7.3,
    "rating_count": 492
  },
  {
    "name": "LANTERN",
    "cuisine": [
      "Thai",
      "Asian"
    ],
    "category": "restaurants",
    "price_range": "$$",
    "address": "101 MONTAGUE STREET",
    "city": "New York",
    "state": "NY",
    "neighborhood": "DUMBO",
    "latitude": 40.695062514304,
    "longitude": -73.995275889955,
    "phone": "7182372594",
    "grade": null,
    "tags": [],
    "rating": 6.6,
    "rating_count": 480
  },
  {
    "name": "SALUGGI'S EAST",
    "cuisine": [
      "Italian"
    ],
    "category": "restaurants",
    "price_range": "$$$",
    "address": "399 GRAND STREET",
    "city": "New York",
    "state": "NY",
    "neighborhood": "Chelsea",
    "latitude": 40.716078603878,
    "longitude": -73.987190362831,
    "phone": "6468961163",
    "grade": "A",
    "tags": [
      "clean",
      "highly-rated"
    ],
    "rating": 8.9,
    "rating_count": 120
  },
  {
    "name": "LA MADRINA Mexican Resturant",
    "cuisine": [
      "Mexican",
      "Latin"
    ],
    "category": "restaurants",
    "price_range": "$$",
    "address": "334 EAST GUN HILL ROAD",
    "city": "New York",
    "state": "NY",
    "neighborhood": "Fordham",
    "latitude": 40.878808622248,
    "longitude": -73.873198063352,
    "phone": "7185159848",
    "grade": "A",
    "tags": [
      "clean",
      "highly-rated"
    ],
    "rating": 8.2,
    "rating_count": 160
  },
  {
    "name": "GLOBE BAR",
    "cuisine": [
      "Irish",
      "European"
    ],
    "category": "restaurants",
    "price_range": "$$",
    "address": "158 EAST   23 STREET",
    "city": "New York",
    "state": "NY",
    "neighborhood": "Financial District",
    "latitude": 40.739216592658,
    "longitude": -73.984089727109,
    "phone": "2124776161",
    "grade": null,
    "tags": [],
    "rating": 6.3,
    "rating_count": 75
  },
  {
    "name": "LIEBMAN'S DELI",
    "cuisine": [
      "Kosher",
      "Jewish"
    ],
    "category": "restaurants",
    "price_range": "$$",
    "address": "552 WEST  235 STREET",
    "city": "New York",
    "state": "NY",
    "neighborhood": "Fordham",
    "latitude": 40.885578578669,
    "longitude": -73.90962202246,
    "phone": "7185484534",
    "grade": null,
    "tags": [],
    "rating": 5.5,
    "rating_count": 419
  },
  {
    "name": "JING FU HOUSE",
    "cuisine": [
      "Chinese",
      "Asian"
    ],
    "category": "restaurants",
    "price_range": "$$",
    "address": "95-49 ROOSEVELT AVENUE",
    "city": "New York",
    "state": "NY",
    "neighborhood": "Long Island City",
    "latitude": 40.749099335856,
    "longitude": -73.870028060339,
    "phone": "9172993959",
    "grade": null,
    "tags": [],
    "rating": 6.3,
    "rating_count": 74
  },
  {
    "name": "HUNGRY GHOST",
    "cuisine": [
      "Coffee/Tea"
    ],
    "category": "coffee_tea",
    "price_range": "$$",
    "address": "183 STERLING PLACE",
    "city": "New York",
    "state": "NY",
    "neighborhood": "Bushwick",
    "latitude": 40.676301263217,
    "longitude": -73.971429007508,
    "phone": "7187837375",
    "grade": null,
    "tags": [],
    "rating": 8,
    "rating_count": 195
  },
  {
    "name": "DUNKIN",
    "cuisine": [
      "Coffee/Tea"
    ],
    "category": "coffee_tea",
    "price_range": "$$",
    "address": "1145A BAY STREET",
    "city": "New York",
    "state": "NY",
    "neighborhood": "Stapleton",
    "latitude": 40.61530441605,
    "longitude": -74.067023519598,
    "phone": "7184204920",
    "grade": null,
    "tags": [],
    "rating": 7.1,
    "rating_count": 480
  },
  {
    "name": "SUBWAY",
    "cuisine": [
      "Sandwiches",
      "American"
    ],
    "category": "restaurants",
    "price_range": "$",
    "address": "507 EAST  161 STREET",
    "city": "New York",
    "state": "NY",
    "neighborhood": "Fordham",
    "latitude": 40.823059345683,
    "longitude": -73.910003541385,
    "phone": "7184844778",
    "grade": "A",
    "tags": [
      "clean",
      "highly-rated",
      "budget-friendly"
    ],
    "rating": 9.3,
    "rating_count": 352
  },
  {
    "name": "DUNKIN DONUTS",
    "cuisine": [
      "Coffee/Tea"
    ],
    "category": "coffee_tea",
    "price_range": "$$",
    "address": "56 COURT STREET",
    "city": "New York",
    "state": "NY",
    "neighborhood": "Greenpoint",
    "latitude": 40.692163791677,
    "longitude": -73.991172430005,
    "phone": "9178865304",
    "grade": "A",
    "tags": [
      "clean",
      "highly-rated"
    ],
    "rating": 9.3,
    "rating_count": 229
  },
  {
    "name": "DELICIAS CALENAS",
    "cuisine": [
      "Latin American"
    ],
    "category": "restaurants",
    "price_range": "$$",
    "address": "95-41 ROOSEVELT AVENUE",
    "city": "New York",
    "state": "NY",
    "neighborhood": "Jackson Heights",
    "latitude": 40.749072178254,
    "longitude": -73.870284361743,
    "phone": "7185070414",
    "grade": null,
    "tags": [],
    "rating": 5.4,
    "rating_count": 468
  },
  {
    "name": "NIKO'S SOUVLAKI",
    "cuisine": [
      "Greek",
      "Mediterranean"
    ],
    "category": "restaurants",
    "price_range": "$$",
    "address": "19-33 DITMARS BOULEVARD",
    "city": "New York",
    "state": "NY",
    "neighborhood": "Forest Hills",
    "latitude": 40.780669314244,
    "longitude": -73.917123872184,
    "phone": "9292080196",
    "grade": "A",
    "tags": [
      "clean",
      "highly-rated"
    ],
    "rating": 8.7,
    "rating_count": 264
  },
  {
    "name": "THE HIDEOUT TAVERN",
    "cuisine": [
      "Irish",
      "European"
    ],
    "category": "restaurants",
    "price_range": "$$",
    "address": "143 EAST  233 STREET",
    "city": "New York",
    "state": "NY",
    "neighborhood": "South Bronx",
    "latitude": 40.896425170898,
    "longitude": -73.871547455917,
    "phone": "9146299332",
    "grade": "Z",
    "tags": [],
    "rating": 6.6,
    "rating_count": 238
  },
  {
    "name": "NACHO MACHO TACOS",
    "cuisine": [
      "Mexican",
      "Latin"
    ],
    "category": "restaurants",
    "price_range": "$$",
    "address": "417 PROSPECT PLACE",
    "city": "New York",
    "state": "NY",
    "neighborhood": "Brooklyn Heights",
    "latitude": 40.67625190359,
    "longitude": -73.962120479604,
    "phone": "7186222727",
    "grade": null,
    "tags": [],
    "rating": 5.1,
    "rating_count": 21
  },
  {
    "name": "DUNKIN'",
    "cuisine": [
      "Donuts"
    ],
    "category": "restaurants",
    "price_range": "$$",
    "address": "3015 MERMAID AVENUE",
    "city": "New York",
    "state": "NY",
    "neighborhood": "Greenpoint",
    "latitude": 40.575307730539,
    "longitude": -73.9967062742,
    "phone": "7182665021",
    "grade": "A",
    "tags": [
      "clean",
      "highly-rated"
    ],
    "rating": 8,
    "rating_count": 421
  },
  {
    "name": "FLAMIN' CHICKEN & PIZZA",
    "cuisine": [
      "Chicken"
    ],
    "category": "restaurants",
    "price_range": "$$",
    "address": "1595 BROADWAY",
    "city": "New York",
    "state": "NY",
    "neighborhood": "Park Slope",
    "latitude": 40.685504009937,
    "longitude": -73.915028721313,
    "phone": "7186848899",
    "grade": "A",
    "tags": [
      "clean",
      "highly-rated"
    ],
    "rating": 8.4,
    "rating_count": 156
  },
  {
    "name": "SANTI & TITO EMPANADAS Y MAS",
    "cuisine": [
      "Latin American"
    ],
    "category": "restaurants",
    "price_range": "$$",
    "address": "1221 JEROME AVENUE",
    "city": "New York",
    "state": "NY",
    "neighborhood": "South Bronx",
    "latitude": 40.8365750585,
    "longitude": -73.922106183777,
    "phone": "9178193056",
    "grade": null,
    "tags": [],
    "rating": 6.9,
    "rating_count": 19
  },
  {
    "name": "ANGELOS PIZZERIA",
    "cuisine": [
      "Pizza",
      "Italian"
    ],
    "category": "restaurants",
    "price_range": "$",
    "address": "39-03 103 STREET",
    "city": "New York",
    "state": "NY",
    "neighborhood": "Forest Hills",
    "latitude": 40.750534933536,
    "longitude": -73.863023382041,
    "phone": "7183358637",
    "grade": null,
    "tags": [
      "budget-friendly",
      "casual"
    ],
    "rating": 8.2,
    "rating_count": 70
  },
  {
    "name": "MAX SOHA",
    "cuisine": [
      "Italian"
    ],
    "category": "restaurants",
    "price_range": "$$$",
    "address": "1274 AMSTERDAM AVENUE",
    "city": "New York",
    "state": "NY",
    "neighborhood": "SoHo",
    "latitude": 40.811111579854,
    "longitude": -73.957928788503,
    "phone": "2125312221",
    "grade": "A",
    "tags": [
      "clean",
      "highly-rated"
    ],
    "rating": 8.6,
    "rating_count": 119
  },
  {
    "name": "SAHARA TURKISH GRILL",
    "cuisine": [
      "Turkish",
      "Mediterranean"
    ],
    "category": "restaurants",
    "price_range": "$$",
    "address": "532 NEPTUNE AVENUE",
    "city": "New York",
    "state": "NY",
    "neighborhood": "Greenpoint",
    "latitude": 40.579860948914,
    "longitude": -73.973025599117,
    "phone": "7183330384",
    "grade": "Z",
    "tags": [],
    "rating": 5.6,
    "rating_count": 155
  },
  {
    "name": "QAHWAH HOUSE",
    "cuisine": [
      "Coffee/Tea"
    ],
    "category": "coffee_tea",
    "price_range": "$$",
    "address": "22-37 31 STREET",
    "city": "New York",
    "state": "NY",
    "neighborhood": "Astoria",
    "latitude": 40.775288297574,
    "longitude": -73.911703932435,
    "phone": "7188600032",
    "grade": null,
    "tags": [],
    "rating": 5.9,
    "rating_count": 43
  },
  {
    "name": "KENNEDY FRIED CHICKEN",
    "cuisine": [
      "Chicken"
    ],
    "category": "restaurants",
    "price_range": "$$",
    "address": "696 ALLERTON AVENUE",
    "city": "New York",
    "state": "NY",
    "neighborhood": "Fordham",
    "latitude": 40.865410742505,
    "longitude": -73.867569116686,
    "phone": "3473468238",
    "grade": "A",
    "tags": [
      "clean",
      "highly-rated"
    ],
    "rating": 9.3,
    "rating_count": 231
  },
  {
    "name": "J'S KITCHEN NEW YORK",
    "cuisine": [
      "Japanese",
      "Asian"
    ],
    "category": "restaurants",
    "price_range": "$$$",
    "address": "261 1 AVENUE",
    "city": "New York",
    "state": "NY",
    "neighborhood": "Financial District",
    "latitude": 40.7320908592,
    "longitude": -73.981894039686,
    "phone": "9172620434",
    "grade": "Z",
    "tags": [
      "fresh-fish"
    ],
    "rating": 6.8,
    "rating_count": 335
  },
  {
    "name": "NEXT STOP VEGAN",
    "cuisine": [
      "Vegan"
    ],
    "category": "restaurants",
    "price_range": "$$",
    "address": "88 LIVINGSTON STREET",
    "city": "New York",
    "state": "NY",
    "neighborhood": "Crown Heights",
    "latitude": 40.691395225127,
    "longitude": -73.990790297022,
    "phone": "9179666066",
    "grade": "A",
    "tags": [
      "clean",
      "highly-rated",
      "vegetarian-friendly"
    ],
    "rating": 8,
    "rating_count": 182
  },
  {
    "name": "BROOKLYNS FINEST PIZZA & RESTAURANT",
    "cuisine": [
      "Pizza",
      "Italian"
    ],
    "category": "restaurants",
    "price_range": "$",
    "address": "1250 HYLAN BOULEVARD",
    "city": "New York",
    "state": "NY",
    "neighborhood": "Stapleton",
    "latitude": 40.597674284318,
    "longitude": -74.084200109975,
    "phone": "7188157070",
    "grade": null,
    "tags": [
      "budget-friendly",
      "casual"
    ],
    "rating": 6.9,
    "rating_count": 367
  },
  {
    "name": "LA CASA DEL POLLO PERUANO II",
    "cuisine": [
      "Peruvian",
      "Latin"
    ],
    "category": "restaurants",
    "price_range": "$$",
    "address": "81-12 ROOSEVELT AVENUE",
    "city": "New York",
    "state": "NY",
    "neighborhood": "Forest Hills",
    "latitude": 40.747542204418,
    "longitude": -73.884636919783,
    "phone": "7182057023",
    "grade": "A",
    "tags": [
      "clean",
      "highly-rated"
    ],
    "rating": 9.4,
    "rating_count": 48
  },
  {
    "name": "CARVEL",
    "cuisine": [
      "Frozen Desserts"
    ],
    "category": "dessert",
    "price_range": "$$",
    "address": "1111 HYLAN BOULEVARD",
    "city": "New York",
    "state": "NY",
    "neighborhood": "St. George",
    "latitude": 40.598553130746,
    "longitude": -74.079646008177,
    "phone": "7188167807",
    "grade": null,
    "tags": [],
    "rating": 6.9,
    "rating_count": 210
  },
  {
    "name": "ARIANA KEBAB HOUSE",
    "cuisine": [
      "Afghan"
    ],
    "category": "restaurants",
    "price_range": "$$",
    "address": "787 9 AVENUE",
    "city": "New York",
    "state": "NY",
    "neighborhood": "Chelsea",
    "latitude": 40.764993098016,
    "longitude": -73.987855987299,
    "phone": "2122622323",
    "grade": null,
    "tags": [],
    "rating": 6.2,
    "rating_count": 217
  },
  {
    "name": "PARIS BAGUETTE",
    "cuisine": [
      "Bakery Products/Desserts"
    ],
    "category": "bakeries",
    "price_range": "$$",
    "address": "88-16 NORTHERN BOULEVARD",
    "city": "New York",
    "state": "NY",
    "neighborhood": "Long Island City",
    "latitude": 40.756155526055,
    "longitude": -73.879543358204,
    "phone": "7184580260",
    "grade": "A",
    "tags": [
      "clean",
      "highly-rated"
    ],
    "rating": 8,
    "rating_count": 307
  },
  {
    "name": "INSOMNIA COOKIES",
    "cuisine": [
      "Bakery Products/Desserts"
    ],
    "category": "bakeries",
    "price_range": "$$",
    "address": "304 WEST   14 STREET",
    "city": "New York",
    "state": "NY",
    "neighborhood": "Upper West Side",
    "latitude": 40.739859935901,
    "longitude": -74.002818336019,
    "phone": "2153831320",
    "grade": "A",
    "tags": [
      "clean",
      "highly-rated"
    ],
    "rating": 8.4,
    "rating_count": 83
  },
  {
    "name": "MCDONALD'S",
    "cuisine": [
      "Burgers",
      "American"
    ],
    "category": "restaurants",
    "price_range": "$",
    "address": "946 8 AVENUE",
    "city": "New York",
    "state": "NY",
    "neighborhood": "Harlem",
    "latitude": 40.765939484522,
    "longitude": -73.983422680753,
    "phone": "2125866676",
    "grade": "A",
    "tags": [
      "clean",
      "highly-rated",
      "budget-friendly",
      "casual"
    ],
    "rating": 9.5,
    "rating_count": 427
  },
  {
    "name": "FIX-U-PLATE",
    "cuisine": [
      "Caribbean",
      "Latin"
    ],
    "category": "restaurants",
    "price_range": "$$",
    "address": "1139 CLARKSON AVENUE",
    "city": "New York",
    "state": "NY",
    "neighborhood": "Bushwick",
    "latitude": 40.660807750828,
    "longitude": -73.920600161219,
    "phone": "9292343888",
    "grade": null,
    "tags": [],
    "rating": 7,
    "rating_count": 290
  },
  {
    "name": "DUNKIN",
    "cuisine": [
      "Donuts"
    ],
    "category": "restaurants",
    "price_range": "$$",
    "address": "728 WEST  181 STREET",
    "city": "New York",
    "state": "NY",
    "neighborhood": "Financial District",
    "latitude": 40.850560453656,
    "longitude": -73.937123092716,
    "phone": "2127950101",
    "grade": null,
    "tags": [],
    "rating": 7.1,
    "rating_count": 108
  },
  {
    "name": "FRANKIE & JOHNNIE'S STEAKHOUSE",
    "cuisine": [
      "Steakhouse",
      "American"
    ],
    "category": "coffee_tea",
    "price_range": "$$$$",
    "address": "32 WEST   37 STREET",
    "city": "New York",
    "state": "NY",
    "neighborhood": "Chelsea",
    "latitude": 40.750829719358,
    "longitude": -73.984368462078,
    "phone": "2129478940",
    "grade": "A",
    "tags": [
      "clean",
      "highly-rated",
      "special-occasion",
      "upscale"
    ],
    "rating": 8.5,
    "rating_count": 483
  },
  {
    "name": "LIBERTY PIZZA",
    "cuisine": [
      "Pizza",
      "Italian"
    ],
    "category": "restaurants",
    "price_range": "$",
    "address": "482 MYRTLE AVENUE",
    "city": "New York",
    "state": "NY",
    "neighborhood": "Crown Heights",
    "latitude": 40.693405232226,
    "longitude": -73.966052165365,
    "phone": "7187890600",
    "grade": "Z",
    "tags": [
      "budget-friendly",
      "casual"
    ],
    "rating": 6.7,
    "rating_count": 486
  },
  {
    "name": "CARIBBEAN JERKEE'S DELIGHT",
    "cuisine": [
      "Caribbean",
      "Latin"
    ],
    "category": "restaurants",
    "price_range": "$$",
    "address": "932 UTICA AVENUE",
    "city": "New York",
    "state": "NY",
    "neighborhood": "Williamsburg",
    "latitude": 40.650457979057,
    "longitude": -73.930256219584,
    "phone": "3473658691",
    "grade": "A",
    "tags": [
      "clean",
      "highly-rated"
    ],
    "rating": 9.3,
    "rating_count": 119
  },
  {
    "name": "LILLI RESTAURANT",
    "cuisine": [
      "Caribbean",
      "Latin"
    ],
    "category": "restaurants",
    "price_range": "$$",
    "address": "1344 UTICA AVENUE",
    "city": "New York",
    "state": "NY",
    "neighborhood": "DUMBO",
    "latitude": 40.639436956954,
    "longitude": -73.929078735477,
    "phone": "9172991323",
    "grade": "A",
    "tags": [
      "clean",
      "highly-rated"
    ],
    "rating": 8.3,
    "rating_count": 32
  },
  {
    "name": "NIEVES TIA MIMI ICEES",
    "cuisine": [
      "Frozen Desserts"
    ],
    "category": "dessert",
    "price_range": "$$",
    "address": "89-14 ROOSEVELT AVENUE",
    "city": "New York",
    "state": "NY",
    "neighborhood": "Flushing",
    "latitude": 40.7483114018,
    "longitude": -73.877338007134,
    "phone": "7185002909",
    "grade": "Z",
    "tags": [],
    "rating": 7.5,
    "rating_count": 449
  },
  {
    "name": "CARIDAD RESTAURANT",
    "cuisine": [
      "Latin American"
    ],
    "category": "restaurants",
    "price_range": "$$",
    "address": "18 EAST GUN HILL ROAD",
    "city": "New York",
    "state": "NY",
    "neighborhood": "Fordham",
    "latitude": 40.882412338618,
    "longitude": -73.880792827495,
    "phone": "7183246700",
    "grade": "A",
    "tags": [
      "clean",
      "highly-rated"
    ],
    "rating": 9.4,
    "rating_count": 232
  },
  {
    "name": "SURYA SWEETS & SNACKS",
    "cuisine": [
      "Vegetarian",
      "Healthy"
    ],
    "category": "restaurants",
    "price_range": "$$",
    "address": "250-18 HILLSIDE AVENUE",
    "city": "New York",
    "state": "NY",
    "neighborhood": "Flushing",
    "latitude": 40.735410686571,
    "longitude": -73.717188880956,
    "phone": "7183477770",
    "grade": "A",
    "tags": [
      "clean",
      "highly-rated",
      "vegetarian-friendly"
    ],
    "rating": 8.3,
    "rating_count": 266
  },
  {
    "name": "STAR PIZZA",
    "cuisine": [
      "Pizza",
      "Italian"
    ],
    "category": "restaurants",
    "price_range": "$",
    "address": "156 DELANCEY STREET",
    "city": "New York",
    "state": "NY",
    "neighborhood": "Upper West Side",
    "latitude": 40.717901024793,
    "longitude": -73.986280938511,
    "phone": "2125051200",
    "grade": "A",
    "tags": [
      "clean",
      "highly-rated",
      "budget-friendly",
      "casual"
    ],
    "rating": 9,
    "rating_count": 425
  },
  {
    "name": "JACK JONES GASTROPUB",
    "cuisine": [
      "Irish",
      "European"
    ],
    "category": "restaurants",
    "price_range": "$$",
    "address": "38-01 DITMARS BOULEVARD",
    "city": "New York",
    "state": "NY",
    "neighborhood": "Flushing",
    "latitude": 40.773288879948,
    "longitude": -73.906673632962,
    "phone": "9148267968",
    "grade": null,
    "tags": [],
    "rating": 8.1,
    "rating_count": 21
  },
  {
    "name": "JOE & SAL'S PIZZERIA",
    "cuisine": [
      "Pizza",
      "Italian"
    ],
    "category": "restaurants",
    "price_range": "$",
    "address": "353 MYRTLE AVENUE",
    "city": "New York",
    "state": "NY",
    "neighborhood": "Williamsburg",
    "latitude": 40.693220219798,
    "longitude": -73.972103280748,
    "phone": "9179091420",
    "grade": "A",
    "tags": [
      "clean",
      "highly-rated",
      "budget-friendly",
      "casual"
    ],
    "rating": 9.2,
    "rating_count": 91
  },
  {
    "name": "LITTLE JAMAICAN PRIDE",
    "cuisine": [
      "Caribbean",
      "Latin"
    ],
    "category": "restaurants",
    "price_range": "$$",
    "address": "4202 AVENUE D",
    "city": "New York",
    "state": "NY",
    "neighborhood": "DUMBO",
    "latitude": 40.641651073668,
    "longitude": -73.93688471166,
    "phone": "3472401539",
    "grade": "N",
    "tags": [],
    "rating": 6.4,
    "rating_count": 272
  },
  {
    "name": "MOODY'S COFFEEHOUSE & TAVERN",
    "cuisine": [
      "American"
    ],
    "category": "restaurants",
    "price_range": "$$",
    "address": "214 HIGHLAWN AVENUE",
    "city": "New York",
    "state": "NY",
    "neighborhood": "Greenpoint",
    "latitude": 40.603546794892,
    "longitude": -73.978043308163,
    "phone": "9173354643",
    "grade": "N",
    "tags": [],
    "rating": 9.2,
    "rating_count": 302
  },
  {
    "name": "Don Sazon Restaurant",
    "cuisine": [
      "Latin American"
    ],
    "category": "restaurants",
    "price_range": "$$",
    "address": "1048 WOODYCREST AVENUE",
    "city": "New York",
    "state": "NY",
    "neighborhood": "Pelham Bay",
    "latitude": 40.833523562859,
    "longitude": -73.927291853088,
    "phone": "3478284608",
    "grade": null,
    "tags": [],
    "rating": 6.2,
    "rating_count": 111
  },
  {
    "name": "ZINGER CHICKEN & GRILL",
    "cuisine": [
      "Chicken"
    ],
    "category": "restaurants",
    "price_range": "$$",
    "address": "367 AVENUE X",
    "city": "New York",
    "state": "NY",
    "neighborhood": "Greenpoint",
    "latitude": 40.590633342082,
    "longitude": -73.969438703721,
    "phone": "3474624272",
    "grade": "A",
    "tags": [
      "clean",
      "highly-rated"
    ],
    "rating": 8.3,
    "rating_count": 394
  },
  {
    "name": "OLEA",
    "cuisine": [
      "Mediterranean"
    ],
    "category": "restaurants",
    "price_range": "$$",
    "address": "171 LAFAYETTE AVENUE",
    "city": "New York",
    "state": "NY",
    "neighborhood": "Greenpoint",
    "latitude": 40.687664410013,
    "longitude": -73.970551518834,
    "phone": "7186437003",
    "grade": "Z",
    "tags": [],
    "rating": 6.7,
    "rating_count": 419
  },
  {
    "name": "HIMAWARI",
    "cuisine": [
      "Coffee/Tea"
    ],
    "category": "coffee_tea",
    "price_range": "$$",
    "address": "69 1 AVENUE",
    "city": "New York",
    "state": "NY",
    "neighborhood": "Financial District",
    "latitude": 40.725380589145,
    "longitude": -73.986910764439,
    "phone": "9295654155",
    "grade": "N",
    "tags": [],
    "rating": 6.5,
    "rating_count": 463
  },
  {
    "name": "PEP BAKE HOUSE & COFFEE SHOP",
    "cuisine": [
      "Coffee/Tea"
    ],
    "category": "coffee_tea",
    "price_range": "$$",
    "address": "532 NEPTUNE AVENUE",
    "city": "New York",
    "state": "NY",
    "neighborhood": "Park Slope",
    "latitude": 40.579860948914,
    "longitude": -73.973025599117,
    "phone": "6462439473",
    "grade": null,
    "tags": [],
    "rating": 7.1,
    "rating_count": 112
  },
  {
    "name": "LAO MA SPICY",
    "cuisine": [
      "Chinese",
      "Asian"
    ],
    "category": "restaurants",
    "price_range": "$$",
    "address": "58 EAST    8 STREET",
    "city": "New York",
    "state": "NY",
    "neighborhood": "Harlem",
    "latitude": 40.730980466768,
    "longitude": -73.993371842863,
    "phone": "2127771887",
    "grade": null,
    "tags": [],
    "rating": 5.4,
    "rating_count": 165
  },
  {
    "name": "THE ORIGINAL AMERICAN CHICKEN",
    "cuisine": [
      "Chicken"
    ],
    "category": "restaurants",
    "price_range": "$$",
    "address": "78-07 37 AVENUE",
    "city": "New York",
    "state": "NY",
    "neighborhood": "Flushing",
    "latitude": 40.749376146778,
    "longitude": -73.887849480225,
    "phone": "7186510800",
    "grade": "A",
    "tags": [
      "clean",
      "highly-rated"
    ],
    "rating": 8.6,
    "rating_count": 356
  },
  {
    "name": "THE BASEMENT",
    "cuisine": [
      "Spanish",
      "European"
    ],
    "category": "restaurants",
    "price_range": "$$",
    "address": "11 SCHUYLER STREET",
    "city": "New York",
    "state": "NY",
    "neighborhood": "Stapleton",
    "latitude": 40.643350145468,
    "longitude": -74.076539516097,
    "phone": "7188168162",
    "grade": "A",
    "tags": [
      "clean",
      "highly-rated"
    ],
    "rating": 8.6,
    "rating_count": 441
  },
  {
    "name": "Jiu Xiang Ju",
    "cuisine": [
      "Chinese",
      "Asian"
    ],
    "category": "restaurants",
    "price_range": "$$",
    "address": "43-18 MAIN STREET",
    "city": "New York",
    "state": "NY",
    "neighborhood": "Long Island City",
    "latitude": 40.751984137532,
    "longitude": -73.826483548825,
    "phone": "9292729790",
    "grade": null,
    "tags": [],
    "rating": 7.7,
    "rating_count": 232
  },
  {
    "name": "GREEN LANE COFFEE",
    "cuisine": [
      "Coffee/Tea"
    ],
    "category": "coffee_tea",
    "price_range": "$$",
    "address": "204 WEST   96 STREET",
    "city": "New York",
    "state": "NY",
    "neighborhood": "Financial District",
    "latitude": 40.794163980835,
    "longitude": -73.970673971462,
    "phone": "4243358752",
    "grade": "A",
    "tags": [
      "clean",
      "highly-rated"
    ],
    "rating": 8.9,
    "rating_count": 404
  },
  {
    "name": ":3 COFFEE",
    "cuisine": [
      "Coffee/Tea"
    ],
    "category": "coffee_tea",
    "price_range": "$$",
    "address": "29 WEST   21 STREET",
    "city": "New York",
    "state": "NY",
    "neighborhood": "Chelsea",
    "latitude": 40.740737990032,
    "longitude": -73.991638705565,
    "phone": "3472658602",
    "grade": null,
    "tags": [],
    "rating": 8.1,
    "rating_count": 201
  },
  {
    "name": "SACCO PIZZA",
    "cuisine": [
      "Pizza",
      "Italian"
    ],
    "category": "restaurants",
    "price_range": "$",
    "address": "819 9 AVENUE",
    "city": "New York",
    "state": "NY",
    "neighborhood": "Chelsea",
    "latitude": 40.76606072378,
    "longitude": -73.987079631127,
    "phone": "2125827765",
    "grade": "A",
    "tags": [
      "clean",
      "highly-rated",
      "budget-friendly",
      "casual"
    ],
    "rating": 9.1,
    "rating_count": 374
  },
  {
    "name": "PITA SABABA",
    "cuisine": [
      "Bakery Products/Desserts"
    ],
    "category": "bakeries",
    "price_range": "$$",
    "address": "540 KINGS HIGHWAY",
    "city": "New York",
    "state": "NY",
    "neighborhood": "DUMBO",
    "latitude": 40.604486307331,
    "longitude": -73.96952957261,
    "phone": "3053337960",
    "grade": null,
    "tags": [],
    "rating": 8,
    "rating_count": 477
  },
  {
    "name": "PAPA JOHN'S PIZZA",
    "cuisine": [
      "Pizza",
      "Italian"
    ],
    "category": "restaurants",
    "price_range": "$",
    "address": "2124 MERMAID AVENUE",
    "city": "New York",
    "state": "NY",
    "neighborhood": "Crown Heights",
    "latitude": 40.576223938799,
    "longitude": -73.988293613305,
    "phone": "9173026461",
    "grade": "A",
    "tags": [
      "clean",
      "highly-rated",
      "budget-friendly",
      "casual"
    ],
    "rating": 9.4,
    "rating_count": 85
  },
  {
    "name": "AZTEC SOUL",
    "cuisine": [
      "Mexican",
      "Latin"
    ],
    "category": "restaurants",
    "price_range": "$$",
    "address": "3372 ATLANTIC AVENUE",
    "city": "New York",
    "state": "NY",
    "neighborhood": "Park Slope",
    "latitude": 40.681555445711,
    "longitude": -73.871973758914,
    "phone": "3476631651",
    "grade": null,
    "tags": [],
    "rating": 5.4,
    "rating_count": 297
  },
  {
    "name": "HUARACHE TAQUERIA",
    "cuisine": [
      "Mexican",
      "Latin"
    ],
    "category": "restaurants",
    "price_range": "$$",
    "address": "1687 MACOMBS ROAD",
    "city": "New York",
    "state": "NY",
    "neighborhood": "Fordham",
    "latitude": 40.84863399467,
    "longitude": -73.916164145667,
    "phone": "7182107948",
    "grade": "A",
    "tags": [
      "clean",
      "highly-rated"
    ],
    "rating": 9,
    "rating_count": 210
  },
  {
    "name": "LUIGI'S PIZZERIA",
    "cuisine": [
      "Pizza",
      "Italian"
    ],
    "category": "restaurants",
    "price_range": "$",
    "address": "326 DEKALB AVENUE",
    "city": "New York",
    "state": "NY",
    "neighborhood": "DUMBO",
    "latitude": 40.689735297362,
    "longitude": -73.965473490836,
    "phone": "7187832430",
    "grade": "A",
    "tags": [
      "clean",
      "highly-rated",
      "budget-friendly",
      "casual"
    ],
    "rating": 9.3,
    "rating_count": 494
  },
  {
    "name": "BOUCHERIE",
    "cuisine": [
      "French",
      "European"
    ],
    "category": "restaurants",
    "price_range": "$$$$",
    "address": "99 7 AVENUE SOUTH",
    "city": "New York",
    "state": "NY",
    "neighborhood": "SoHo",
    "latitude": 40.732934886991,
    "longitude": -74.003175258582,
    "phone": "2128371616",
    "grade": null,
    "tags": [
      "special-occasion",
      "upscale"
    ],
    "rating": 7,
    "rating_count": 363
  },
  {
    "name": "NEEM INDIAN CUISINE",
    "cuisine": [
      "Indian",
      "Asian"
    ],
    "category": "restaurants",
    "price_range": "$$",
    "address": "3549 JOHNSON AVENUE",
    "city": "New York",
    "state": "NY",
    "neighborhood": "Pelham Bay",
    "latitude": 40.886141413758,
    "longitude": -73.909834633612,
    "phone": "3474273953",
    "grade": "A",
    "tags": [
      "clean",
      "highly-rated"
    ],
    "rating": 9.1,
    "rating_count": 239
  },
  {
    "name": "NYC BAGELS & COFFEE HOUSE",
    "cuisine": [
      "Bakery",
      "Breakfast"
    ],
    "category": "bakeries",
    "price_range": "$",
    "address": "29-08 23 AVENUE",
    "city": "New York",
    "state": "NY",
    "neighborhood": "Flushing",
    "latitude": 40.774938493062,
    "longitude": -73.91370824491,
    "phone": "7187289500",
    "grade": "A",
    "tags": [
      "clean",
      "highly-rated",
      "budget-friendly"
    ],
    "rating": 9.4,
    "rating_count": 258
  },
  {
    "name": "ARTS & CRAFTS BEER PARLOR",
    "cuisine": [
      "Vegan"
    ],
    "category": "restaurants",
    "price_range": "$$",
    "address": "1135 AMSTERDAM AVENUE",
    "city": "New York",
    "state": "NY",
    "neighborhood": "Lower East Side",
    "latitude": 40.806696410041,
    "longitude": -73.961124830344,
    "phone": "9176756835",
    "grade": "A",
    "tags": [
      "clean",
      "highly-rated",
      "vegetarian-friendly"
    ],
    "rating": 9.4,
    "rating_count": 372
  },
  {
    "name": "AZOGUENITA BAKERY",
    "cuisine": [
      "Latin American"
    ],
    "category": "restaurants",
    "price_range": "$$",
    "address": "37-61 103 STREET",
    "city": "New York",
    "state": "NY",
    "neighborhood": "Forest Hills",
    "latitude": 40.752773296373,
    "longitude": -73.864184575712,
    "phone": "7184240119",
    "grade": null,
    "tags": [],
    "rating": 6.1,
    "rating_count": 201
  },
  {
    "name": "NIMBOODA INDIAN CUISINE",
    "cuisine": [
      "Indian",
      "Asian"
    ],
    "category": "restaurants",
    "price_range": "$$",
    "address": "664 WASHINGTON AVENUE",
    "city": "New York",
    "state": "NY",
    "neighborhood": "Williamsburg",
    "latitude": 40.678253407226,
    "longitude": -73.963860688009,
    "phone": "7186224616",
    "grade": null,
    "tags": [],
    "rating": 7.5,
    "rating_count": 134
  },
  {
    "name": "PLAYA BOWLS",
    "cuisine": [
      "Juice, Smoothies, Fruit Salads"
    ],
    "category": "restaurants",
    "price_range": "$$",
    "address": "100 WILLOUGHBY STREET",
    "city": "New York",
    "state": "NY",
    "neighborhood": "Bushwick",
    "latitude": 40.692119194158,
    "longitude": -73.984699610102,
    "phone": "9172315259",
    "grade": null,
    "tags": [],
    "rating": 8.3,
    "rating_count": 233
  },
  {
    "name": "LITTLE CAESARS",
    "cuisine": [
      "Pizza",
      "Italian"
    ],
    "category": "restaurants",
    "price_range": "$",
    "address": "1656 BRUCKNER BOULEVARD",
    "city": "New York",
    "state": "NY",
    "neighborhood": "Riverdale",
    "latitude": 40.824043287785,
    "longitude": -73.873537684618,
    "phone": "9174718165",
    "grade": "A",
    "tags": [
      "clean",
      "highly-rated",
      "budget-friendly",
      "casual"
    ],
    "rating": 9,
    "rating_count": 327
  },
  {
    "name": "PANDA BAKERY",
    "cuisine": [
      "Chinese",
      "Asian"
    ],
    "category": "restaurants",
    "price_range": "$$",
    "address": "4116 8TH AVE",
    "city": "New York",
    "state": "NY",
    "neighborhood": "Williamsburg",
    "latitude": 40.64601069636,
    "longitude": -73.998627055261,
    "phone": "6466208692",
    "grade": "A",
    "tags": [
      "clean",
      "highly-rated"
    ],
    "rating": 8.8,
    "rating_count": 466
  },
  {
    "name": "TASTY PICKS II",
    "cuisine": [
      "Sandwiches",
      "American"
    ],
    "category": "restaurants",
    "price_range": "$",
    "address": "89 EAST GUN HILL ROAD",
    "city": "New York",
    "state": "NY",
    "neighborhood": "Riverdale",
    "latitude": 40.881700258024,
    "longitude": -73.87964410776,
    "phone": "7182312230",
    "grade": "A",
    "tags": [
      "clean",
      "highly-rated",
      "budget-friendly"
    ],
    "rating": 9.4,
    "rating_count": 298
  },
  {
    "name": "CHIPOTLE MEXICAN GRILL #3741",
    "cuisine": [
      "Tex-Mex"
    ],
    "category": "restaurants",
    "price_range": "$$",
    "address": "4101 4 AVENUE",
    "city": "New York",
    "state": "NY",
    "neighborhood": "Brooklyn Heights",
    "latitude": 40.651417682187,
    "longitude": -74.007413063238,
    "phone": "7182084207",
    "grade": "A",
    "tags": [
      "clean",
      "highly-rated"
    ],
    "rating": 9.4,
    "rating_count": 50
  },
  {
    "name": "CHIARA PIZZERIA",
    "cuisine": [
      "Pizza",
      "Italian"
    ],
    "category": "restaurants",
    "price_range": "$",
    "address": "176 GRAHAM AVENUE",
    "city": "New York",
    "state": "NY",
    "neighborhood": "Williamsburg",
    "latitude": 40.707734904999,
    "longitude": -73.943256574455,
    "phone": "7183020226",
    "grade": "A",
    "tags": [
      "clean",
      "highly-rated",
      "budget-friendly",
      "casual"
    ],
    "rating": 8.4,
    "rating_count": 238
  },
  {
    "name": "CASA MARIAS",
    "cuisine": [
      "Mexican",
      "Latin"
    ],
    "category": "restaurants",
    "price_range": "$$",
    "address": "1962 CONEY ISLAND AVENUE",
    "city": "New York",
    "state": "NY",
    "neighborhood": "Park Slope",
    "latitude": 40.609161247946,
    "longitude": -73.962230724687,
    "phone": "7186271003",
    "grade": null,
    "tags": [],
    "rating": 7.9,
    "rating_count": 317
  },
  {
    "name": "GOLDEN GATE EXPRESS",
    "cuisine": [
      "Chinese",
      "Asian"
    ],
    "category": "restaurants",
    "price_range": "$$",
    "address": "300 WEST  231 STREET",
    "city": "New York",
    "state": "NY",
    "neighborhood": "Pelham Bay",
    "latitude": 40.880881500739,
    "longitude": -73.908539922699,
    "phone": "7188840077",
    "grade": "Z",
    "tags": [],
    "rating": 6.5,
    "rating_count": 118
  },
  {
    "name": "DUNKIN' / 'BASKIN ROBBINS",
    "cuisine": [
      "Donuts"
    ],
    "category": "restaurants",
    "price_range": "$$",
    "address": "395 HUDSON STREET",
    "city": "New York",
    "state": "NY",
    "neighborhood": "Lower East Side",
    "latitude": 40.729127725398,
    "longitude": -74.007042896912,
    "phone": "9178863304",
    "grade": "A",
    "tags": [
      "clean",
      "highly-rated"
    ],
    "rating": 8.7,
    "rating_count": 478
  },
  {
    "name": "CHIPOTLE MEXICAN GRILL",
    "cuisine": [
      "Tex-Mex"
    ],
    "category": "restaurants",
    "price_range": "$$",
    "address": "125 EAST   23 STREET",
    "city": "New York",
    "state": "NY",
    "neighborhood": "Financial District",
    "latitude": 40.739721783434,
    "longitude": -73.985244363578,
    "phone": "2126736904",
    "grade": null,
    "tags": [],
    "rating": 7.3,
    "rating_count": 352
  },
  {
    "name": "NEW PIONEER CHINESE RESTAURANT",
    "cuisine": [
      "Chinese",
      "Asian"
    ],
    "category": "restaurants",
    "price_range": "$$",
    "address": "223 WEST  231 STREET",
    "city": "New York",
    "state": "NY",
    "neighborhood": "Riverdale",
    "latitude": 40.87927061935,
    "longitude": -73.905482822807,
    "phone": "9172073715",
    "grade": "A",
    "tags": [
      "clean",
      "highly-rated"
    ],
    "rating": 9.3,
    "rating_count": 100
  },
  {
    "name": "GOLDEN KRUST CARIBBEAN RESTAURANT",
    "cuisine": [
      "Caribbean",
      "Latin"
    ],
    "category": "restaurants",
    "price_range": "$$",
    "address": "3812 WHITE PLAINS ROAD",
    "city": "New York",
    "state": "NY",
    "neighborhood": "South Bronx",
    "latitude": 40.883942788113,
    "longitude": -73.862584714044,
    "phone": "7187981900",
    "grade": "A",
    "tags": [
      "clean",
      "highly-rated"
    ],
    "rating": 8.8,
    "rating_count": 481
  },
  {
    "name": "NO. 1 HALAL KITCHEN",
    "cuisine": [
      "Chinese",
      "Asian"
    ],
    "category": "restaurants",
    "price_range": "$$",
    "address": "187-14 HILLSIDE AVENUE",
    "city": "New York",
    "state": "NY",
    "neighborhood": "Long Island City",
    "latitude": 40.714785132462,
    "longitude": -73.774866917733,
    "phone": "7189166414",
    "grade": "A",
    "tags": [
      "clean",
      "highly-rated"
    ],
    "rating": 9.2,
    "rating_count": 256
  },
  {
    "name": "DUNKIN'",
    "cuisine": [
      "Donuts"
    ],
    "category": "restaurants",
    "price_range": "$$",
    "address": "501 5 AVENUE",
    "city": "New York",
    "state": "NY",
    "neighborhood": "Upper West Side",
    "latitude": 40.753307728589,
    "longitude": -73.980993130264,
    "phone": "6467857259",
    "grade": "A",
    "tags": [
      "clean",
      "highly-rated"
    ],
    "rating": 8.3,
    "rating_count": 470
  },
  {
    "name": "TORIBIO RESTAURANT",
    "cuisine": [
      "Spanish",
      "European"
    ],
    "category": "restaurants",
    "price_range": "$$",
    "address": "3169 FULTON STREET",
    "city": "New York",
    "state": "NY",
    "neighborhood": "Greenpoint",
    "latitude": 40.681954695421,
    "longitude": -73.878163603774,
    "phone": "7182351012",
    "grade": "A",
    "tags": [
      "clean",
      "highly-rated"
    ],
    "rating": 8.6,
    "rating_count": 293
  },
  {
    "name": "G'S HOMESTYLE COOKING",
    "cuisine": [
      "Caribbean",
      "Latin"
    ],
    "category": "restaurants",
    "price_range": "$$",
    "address": "95-08 SUTPHIN BOULEVARD",
    "city": "New York",
    "state": "NY",
    "neighborhood": "Astoria",
    "latitude": 40.698220263051,
    "longitude": -73.806359821833,
    "phone": "7182629320",
    "grade": null,
    "tags": [],
    "rating": 8.3,
    "rating_count": 205
  },
  {
    "name": "RINCON SALVADORENO RESTAURANT",
    "cuisine": [
      "Latin American"
    ],
    "category": "restaurants",
    "price_range": "$$",
    "address": "92-15 149 STREET",
    "city": "New York",
    "state": "NY",
    "neighborhood": "Long Island City",
    "latitude": 40.701696341515,
    "longitude": -73.80544083303,
    "phone": "5167325528",
    "grade": null,
    "tags": [],
    "rating": 8.4,
    "rating_count": 57
  },
  {
    "name": "ROBERTA'S",
    "cuisine": [
      "Pizza",
      "Italian"
    ],
    "category": "restaurants",
    "price_range": "$",
    "address": "43 BOGART STREET",
    "city": "New York",
    "state": "NY",
    "neighborhood": "Brooklyn Heights",
    "latitude": 40.705025904601,
    "longitude": -73.933228565237,
    "phone": "7184171118",
    "grade": "A",
    "tags": [
      "clean",
      "highly-rated",
      "budget-friendly",
      "casual"
    ],
    "rating": 9.1,
    "rating_count": 55
  },
  {
    "name": "RUDY'S BAR & GRILL",
    "cuisine": [
      "American"
    ],
    "category": "restaurants",
    "price_range": "$$",
    "address": "627 9 AVENUE",
    "city": "New York",
    "state": "NY",
    "neighborhood": "Lower East Side",
    "latitude": 40.759929350815,
    "longitude": -73.99154604425,
    "phone": "6467070890",
    "grade": "A",
    "tags": [
      "clean",
      "highly-rated"
    ],
    "rating": 8.7,
    "rating_count": 495
  },
  {
    "name": "MCDONALD'S",
    "cuisine": [
      "Burgers",
      "American"
    ],
    "category": "restaurants",
    "price_range": "$",
    "address": "5765 BROADWAY",
    "city": "New York",
    "state": "NY",
    "neighborhood": "Riverdale",
    "latitude": 40.883719177523,
    "longitude": -73.901451347545,
    "phone": "7187964447",
    "grade": "A",
    "tags": [
      "clean",
      "highly-rated",
      "budget-friendly",
      "casual"
    ],
    "rating": 8,
    "rating_count": 351
  },
  {
    "name": "NYAMINZ & JAMINZ CARIBBEAN KITCHEN",
    "cuisine": [
      "Caribbean",
      "Latin"
    ],
    "category": "restaurants",
    "price_range": "$$",
    "address": "108-10 GUY R BREWER BOULEVARD",
    "city": "New York",
    "state": "NY",
    "neighborhood": "Forest Hills",
    "latitude": 40.696203325789,
    "longitude": -73.790999418243,
    "phone": "9172932703",
    "grade": null,
    "tags": [],
    "rating": 7.2,
    "rating_count": 234
  },
  {
    "name": "TB COFFEE HOUSE",
    "cuisine": [
      "Coffee/Tea"
    ],
    "category": "coffee_tea",
    "price_range": "$$",
    "address": "578 MYRTLE AVENUE",
    "city": "New York",
    "state": "NY",
    "neighborhood": "Greenpoint",
    "latitude": 40.693947243515,
    "longitude": -73.961454071776,
    "phone": "9173972719",
    "grade": "A",
    "tags": [
      "clean",
      "highly-rated"
    ],
    "rating": 9.4,
    "rating_count": 337
  },
  {
    "name": "PIZZERIA SAN DIEGO",
    "cuisine": [
      "Pizza",
      "Italian"
    ],
    "category": "restaurants",
    "price_range": "$",
    "address": "506 EAST  180 STREET",
    "city": "New York",
    "state": "NY",
    "neighborhood": "Fordham",
    "latitude": 40.850954726799,
    "longitude": -73.894570741311,
    "phone": "3478798190",
    "grade": "A",
    "tags": [
      "clean",
      "highly-rated",
      "budget-friendly",
      "casual"
    ],
    "rating": 9.4,
    "rating_count": 71
  },
  {
    "name": "GEORGE'S PIZZA",
    "cuisine": [
      "Pizza",
      "Italian"
    ],
    "category": "restaurants",
    "price_range": "$",
    "address": "726 WEST  181 STREET",
    "city": "New York",
    "state": "NY",
    "neighborhood": "East Village",
    "latitude": 40.850541202932,
    "longitude": -73.937054432565,
    "phone": "2125686891",
    "grade": "A",
    "tags": [
      "clean",
      "highly-rated",
      "budget-friendly",
      "casual"
    ],
    "rating": 9.1,
    "rating_count": 37
  },
  {
    "name": "THE ROGER'S GARDEN",
    "cuisine": [
      "Caribbean",
      "Latin"
    ],
    "category": "restaurants",
    "price_range": "$$",
    "address": "708 ROGERS AVENUE",
    "city": "New York",
    "state": "NY",
    "neighborhood": "DUMBO",
    "latitude": 40.654238095525,
    "longitude": -73.95286720465,
    "phone": "3475764004",
    "grade": "Z",
    "tags": [],
    "rating": 6,
    "rating_count": 70
  },
  {
    "name": "SHENANIGAN'S PUB",
    "cuisine": [
      "American"
    ],
    "category": "restaurants",
    "price_range": "$$",
    "address": "802 CATON AVENUE",
    "city": "New York",
    "state": "NY",
    "neighborhood": "Brooklyn Heights",
    "latitude": 40.647728453129,
    "longitude": -73.972799855941,
    "phone": "3477509447",
    "grade": "A",
    "tags": [
      "clean",
      "highly-rated"
    ],
    "rating": 8.5,
    "rating_count": 448
  },
  {
    "name": "BUCKLEY'S BAR & RESTAURANT",
    "cuisine": [
      "American"
    ],
    "category": "restaurants",
    "price_range": "$$",
    "address": "2926 AVENUE S",
    "city": "New York",
    "state": "NY",
    "neighborhood": "Williamsburg",
    "latitude": 40.605041557071,
    "longitude": -73.94291563627,
    "phone": "7189984222",
    "grade": null,
    "tags": [],
    "rating": 6.3,
    "rating_count": 365
  },
  {
    "name": "SHAKING CRAB",
    "cuisine": [
      "Seafood"
    ],
    "category": "restaurants",
    "price_range": "$$$",
    "address": "230 5 AVENUE",
    "city": "New York",
    "state": "NY",
    "neighborhood": "Crown Heights",
    "latitude": 40.675680179458,
    "longitude": -73.980964867057,
    "phone": "3476864022",
    "grade": "Z",
    "tags": [],
    "rating": 7.6,
    "rating_count": 497
  },
  {
    "name": "OFFCITY",
    "cuisine": [
      "Mediterranean"
    ],
    "category": "restaurants",
    "price_range": "$$",
    "address": "32-11 BROADWAY",
    "city": "New York",
    "state": "NY",
    "neighborhood": "Forest Hills",
    "latitude": 40.761515936728,
    "longitude": -73.924403502687,
    "phone": "3474486678",
    "grade": "N",
    "tags": [],
    "rating": 8,
    "rating_count": 75
  },
  {
    "name": "EL RANCHITO CAFE",
    "cuisine": [
      "Spanish",
      "European"
    ],
    "category": "restaurants",
    "price_range": "$$",
    "address": "6012 NEW UTRECHT AVENUE",
    "city": "New York",
    "state": "NY",
    "neighborhood": "Bushwick",
    "latitude": 40.627527291107,
    "longitude": -73.996599213873,
    "phone": "9297874606",
    "grade": "N",
    "tags": [],
    "rating": 5.9,
    "rating_count": 166
  },
  {
    "name": "TROPIX LOUNGE",
    "cuisine": [
      "Caribbean",
      "Latin"
    ],
    "category": "restaurants",
    "price_range": "$$",
    "address": "115-88 LEFFERTS BOULEVARD",
    "city": "New York",
    "state": "NY",
    "neighborhood": "Jackson Heights",
    "latitude": 40.67463676633,
    "longitude": -73.819608770055,
    "phone": "9172176263",
    "grade": null,
    "tags": [],
    "rating": 8.3,
    "rating_count": 147
  },
  {
    "name": "LA RUTA DEL TACO",
    "cuisine": [
      "Mexican",
      "Latin"
    ],
    "category": "restaurants",
    "price_range": "$$",
    "address": "92-18 JAMAICA AVENUE",
    "city": "New York",
    "state": "NY",
    "neighborhood": "Flushing",
    "latitude": 40.693335224319,
    "longitude": -73.852997382634,
    "phone": "3479612921",
    "grade": "Z",
    "tags": [],
    "rating": 6.9,
    "rating_count": 57
  },
  {
    "name": "LUCKY STAR",
    "cuisine": [
      "Chinese",
      "Asian"
    ],
    "category": "restaurants",
    "price_range": "$$",
    "address": "205-23 LINDEN BOULEVARD",
    "city": "New York",
    "state": "NY",
    "neighborhood": "Astoria",
    "latitude": 40.695865145847,
    "longitude": -73.747112454985,
    "phone": "7187237628",
    "grade": "A",
    "tags": [
      "clean",
      "highly-rated"
    ],
    "rating": 9.1,
    "rating_count": 509
  },
  {
    "name": "Caraotas",
    "cuisine": [
      "Fusion"
    ],
    "category": "restaurants",
    "price_range": "$$",
    "address": "92-02 JAMAICA AVENUE",
    "city": "New York",
    "state": "NY",
    "neighborhood": "Forest Hills",
    "latitude": 40.693299667127,
    "longitude": -73.853094826039,
    "phone": "3472333873",
    "grade": null,
    "tags": [],
    "rating": 6.8,
    "rating_count": 369
  },
  {
    "name": "BELLA'S ITALIAN ICES",
    "cuisine": [
      "Frozen Desserts"
    ],
    "category": "dessert",
    "price_range": "$$",
    "address": "203-20 35 AVENUE",
    "city": "New York",
    "state": "NY",
    "neighborhood": "Astoria",
    "latitude": 40.766185163796,
    "longitude": -73.784183368155,
    "phone": "9298001905",
    "grade": "A",
    "tags": [
      "clean",
      "highly-rated"
    ],
    "rating": 9.2,
    "rating_count": 108
  },
  {
    "name": "CHONGQING WHARF",
    "cuisine": [
      "Chinese",
      "Asian"
    ],
    "category": "restaurants",
    "price_range": "$$",
    "address": "6324 FORT HAMILTON PARKWAY",
    "city": "New York",
    "state": "NY",
    "neighborhood": "Park Slope",
    "latitude": 40.631474062039,
    "longitude": -74.0079764698,
    "phone": "3472102242",
    "grade": "A",
    "tags": [
      "clean",
      "highly-rated"
    ],
    "rating": 8.2,
    "rating_count": 502
  },
  {
    "name": "THE COMMON",
    "cuisine": [
      "American"
    ],
    "category": "restaurants",
    "price_range": "$$",
    "address": "548 4 AVENUE",
    "city": "New York",
    "state": "NY",
    "neighborhood": "Crown Heights",
    "latitude": 40.666824062619,
    "longitude": -73.991669634713,
    "phone": "9178261699",
    "grade": null,
    "tags": [],
    "rating": 6.9,
    "rating_count": 208
  },
  {
    "name": "ANGELITOS DE NOCHE",
    "cuisine": [
      "Mexican",
      "Latin"
    ],
    "category": "restaurants",
    "price_range": "$$",
    "address": "263 KINGS HIGHWAY",
    "city": "New York",
    "state": "NY",
    "neighborhood": "Williamsburg",
    "latitude": 40.605262801947,
    "longitude": -73.980920197718,
    "phone": "9174999939",
    "grade": "N",
    "tags": [],
    "rating": 5.4,
    "rating_count": 259
  },
  {
    "name": "THE GATE",
    "cuisine": [
      "American"
    ],
    "category": "restaurants",
    "price_range": "$$",
    "address": "321 FIFTH AVENUE",
    "city": "New York",
    "state": "NY",
    "neighborhood": "Williamsburg",
    "latitude": 40.672647578442,
    "longitude": -73.983388278646,
    "phone": "7187684329",
    "grade": "A",
    "tags": [
      "clean",
      "highly-rated"
    ],
    "rating": 9,
    "rating_count": 326
  },
  {
    "name": "NUEVA VICTORIA",
    "cuisine": [
      "Chinese/Cuban"
    ],
    "category": "restaurants",
    "price_range": "$$",
    "address": "32-05 BROADWAY",
    "city": "New York",
    "state": "NY",
    "neighborhood": "Long Island City",
    "latitude": 40.761532429044,
    "longitude": -73.924439581946,
    "phone": "7187260819",
    "grade": "A",
    "tags": [
      "clean",
      "highly-rated"
    ],
    "rating": 8.5,
    "rating_count": 199
  },
  {
    "name": "VANESSA BAR & LOUNGE",
    "cuisine": [
      "American"
    ],
    "category": "restaurants",
    "price_range": "$$",
    "address": "110-12 JAMAICA AVENUE",
    "city": "New York",
    "state": "NY",
    "neighborhood": "Long Island City",
    "latitude": 40.696460154188,
    "longitude": -73.837735933572,
    "phone": "9179752443",
    "grade": "Z",
    "tags": [],
    "rating": 6.2,
    "rating_count": 247
  },
  {
    "name": "CANTON MANOR",
    "cuisine": [
      "Asian/Asian Fusion"
    ],
    "category": "restaurants",
    "price_range": "$$",
    "address": "220-15 NORTHERN BOULEVARD",
    "city": "New York",
    "state": "NY",
    "neighborhood": "Jackson Heights",
    "latitude": 40.761506784632,
    "longitude": -73.76134846021,
    "phone": "9293683366",
    "grade": "Z",
    "tags": [],
    "rating": 7.8,
    "rating_count": 266
  },
  {
    "name": "CUENCA COFFEE SHOP RESTAURANT",
    "cuisine": [
      "Latin American"
    ],
    "category": "restaurants",
    "price_range": "$$",
    "address": "95-29 JAMAICA AVENUE",
    "city": "New York",
    "state": "NY",
    "neighborhood": "Forest Hills",
    "latitude": 40.694442279171,
    "longitude": -73.8494681055,
    "phone": "7188474642",
    "grade": null,
    "tags": [],
    "rating": 5.7,
    "rating_count": 315
  },
  {
    "name": "MANCHEGO-KOKO",
    "cuisine": [
      "Asian/Asian Fusion"
    ],
    "category": "restaurants",
    "price_range": "$$",
    "address": "1502 CORTELYOU ROAD",
    "city": "New York",
    "state": "NY",
    "neighborhood": "Greenpoint",
    "latitude": 40.641251182599,
    "longitude": -73.964305991787,
    "phone": "6466273333",
    "grade": null,
    "tags": [],
    "rating": 6.2,
    "rating_count": 403
  },
  {
    "name": "SUGAR'D",
    "cuisine": [
      "Caribbean",
      "Latin"
    ],
    "category": "restaurants",
    "price_range": "$$",
    "address": "2614 NEWKIRK AVE",
    "city": "New York",
    "state": "NY",
    "neighborhood": "Brooklyn Heights",
    "latitude": 40.639748050536,
    "longitude": -73.952034332399,
    "phone": "9172006133",
    "grade": "Z",
    "tags": [],
    "rating": 6.3,
    "rating_count": 54
  },
  {
    "name": "ALADDIN",
    "cuisine": [
      "Bangladeshi",
      "Asian"
    ],
    "category": "restaurants",
    "price_range": "$$",
    "address": "29-06 36 AVENUE",
    "city": "New York",
    "state": "NY",
    "neighborhood": "Forest Hills",
    "latitude": 40.7572466229,
    "longitude": -73.931201580543,
    "phone": "7187842554",
    "grade": "A",
    "tags": [
      "clean",
      "highly-rated"
    ],
    "rating": 8.9,
    "rating_count": 59
  },
  {
    "name": "ICON",
    "cuisine": [
      "American"
    ],
    "category": "restaurants",
    "price_range": "$$",
    "address": "31-84 33 STREET",
    "city": "New York",
    "state": "NY",
    "neighborhood": "Long Island City",
    "latitude": 40.761808907262,
    "longitude": -73.923320222886,
    "phone": "9178326364",
    "grade": "A",
    "tags": [
      "clean",
      "highly-rated"
    ],
    "rating": 8.5,
    "rating_count": 396
  },
  {
    "name": "PAO DE QUEIJO & CO.",
    "cuisine": [
      "Brazilian",
      "Latin"
    ],
    "category": "restaurants",
    "price_range": "$$",
    "address": "31-90 30 STREET",
    "city": "New York",
    "state": "NY",
    "neighborhood": "Astoria",
    "latitude": 40.762516107761,
    "longitude": -73.92605928813,
    "phone": "7182041979",
    "grade": "Z",
    "tags": [],
    "rating": 7,
    "rating_count": 394
  },
  {
    "name": "AMERICAN CHEEZ",
    "cuisine": [
      "American"
    ],
    "category": "restaurants",
    "price_range": "$$",
    "address": "444 7 AVENUE",
    "city": "New York",
    "state": "NY",
    "neighborhood": "Park Slope",
    "latitude": 40.663148087755,
    "longitude": -73.984709885422,
    "phone": "3477254665",
    "grade": "A",
    "tags": [
      "clean",
      "highly-rated"
    ],
    "rating": 8.4,
    "rating_count": 312
  },
  {
    "name": "LUCKY'S COCKTAIL LOUNGE",
    "cuisine": [
      "American"
    ],
    "category": "restaurants",
    "price_range": "$$",
    "address": "334 MARCUS GARVEY BOULEVARD",
    "city": "New York",
    "state": "NY",
    "neighborhood": "Greenpoint",
    "latitude": 40.685713937427,
    "longitude": -73.938598813189,
    "phone": "3475293536",
    "grade": "A",
    "tags": [
      "clean",
      "highly-rated"
    ],
    "rating": 9.4,
    "rating_count": 284
  },
  {
    "name": "BAR DALIA",
    "cuisine": [
      "Latin American"
    ],
    "category": "restaurants",
    "price_range": "$$",
    "address": "33-17 31 AVENUE",
    "city": "New York",
    "state": "NY",
    "neighborhood": "Flushing",
    "latitude": 40.763476602787,
    "longitude": -73.92166495635,
    "phone": "7186408060",
    "grade": "A",
    "tags": [
      "clean",
      "highly-rated"
    ],
    "rating": 8.6,
    "rating_count": 73
  },
  {
    "name": "SIREN",
    "cuisine": [
      "Seafood"
    ],
    "category": "restaurants",
    "price_range": "$$$",
    "address": "687 5 AVENUE",
    "city": "New York",
    "state": "NY",
    "neighborhood": "DUMBO",
    "latitude": 40.661471850928,
    "longitude": -73.993274249418,
    "phone": "3476894577",
    "grade": "A",
    "tags": [
      "clean",
      "highly-rated"
    ],
    "rating": 9.3,
    "rating_count": 194
  },
  {
    "name": "CABANA BREEZE",
    "cuisine": [
      "American"
    ],
    "category": "restaurants",
    "price_range": "$$",
    "address": "135-01 LEFFERTS BOULEVARD",
    "city": "New York",
    "state": "NY",
    "neighborhood": "Flushing",
    "latitude": 40.670260942913,
    "longitude": -73.820950841132,
    "phone": "3472411591",
    "grade": null,
    "tags": [],
    "rating": 7.6,
    "rating_count": 446
  },
  {
    "name": "ELIAS BAR LOUNGE",
    "cuisine": [
      "American"
    ],
    "category": "restaurants",
    "price_range": "$$",
    "address": "105-06 JAMAICA AVENUE",
    "city": "New York",
    "state": "NY",
    "neighborhood": "Flushing",
    "latitude": 40.695216989836,
    "longitude": -73.841821195233,
    "phone": "3478543808",
    "grade": "N",
    "tags": [],
    "rating": 7.8,
    "rating_count": 509
  },
  {
    "name": "C BAR & LOUNGE",
    "cuisine": [
      "Caribbean",
      "Latin"
    ],
    "category": "restaurants",
    "price_range": "$$",
    "address": "87-22 LEFFERTS BOULEVARD",
    "city": "New York",
    "state": "NY",
    "neighborhood": "Flushing",
    "latitude": 40.699559790569,
    "longitude": -73.83068497983,
    "phone": "3474750948",
    "grade": null,
    "tags": [],
    "rating": 8.4,
    "rating_count": 236
  },
  {
    "name": "NEW BEACH BAR",
    "cuisine": [
      "American"
    ],
    "category": "restaurants",
    "price_range": "$$",
    "address": "2722 GERRITSEN AVENUE",
    "city": "New York",
    "state": "NY",
    "neighborhood": "Williamsburg",
    "latitude": 40.592764811783,
    "longitude": -73.925070567932,
    "phone": "7185133119",
    "grade": null,
    "tags": [],
    "rating": 7.4,
    "rating_count": 348
  },
  {
    "name": "MUSE CAFE",
    "cuisine": [
      "Coffee/Tea"
    ],
    "category": "coffee_tea",
    "price_range": "$$",
    "address": "497 6 AVENUE",
    "city": "New York",
    "state": "NY",
    "neighborhood": "Bushwick",
    "latitude": 40.66635681319,
    "longitude": -73.985321934652,
    "phone": "7187885800",
    "grade": "A",
    "tags": [
      "clean",
      "highly-rated"
    ],
    "rating": 9,
    "rating_count": 141
  },
  {
    "name": "HOLLOW NICKEL",
    "cuisine": [
      "American"
    ],
    "category": "restaurants",
    "price_range": "$$",
    "address": "494 ATLANTIC AVENUE",
    "city": "New York",
    "state": "NY",
    "neighborhood": "Park Slope",
    "latitude": 40.68570422082,
    "longitude": -73.98171558228,
    "phone": "3472363417",
    "grade": null,
    "tags": [],
    "rating": 6.7,
    "rating_count": 253
  },
  {
    "name": "UNION HALL",
    "cuisine": [
      "American"
    ],
    "category": "restaurants",
    "price_range": "$$",
    "address": "702 UNION STREET",
    "city": "New York",
    "state": "NY",
    "neighborhood": "Brooklyn Heights",
    "latitude": 40.676179547114,
    "longitude": -73.979901200015,
    "phone": "7186384400",
    "grade": "A",
    "tags": [
      "clean",
      "highly-rated"
    ],
    "rating": 8.4,
    "rating_count": 496
  },
  {
    "name": "SYCAMORE",
    "cuisine": [
      "American"
    ],
    "category": "restaurants",
    "price_range": "$$",
    "address": "1118 CORTELYOU ROAD",
    "city": "New York",
    "state": "NY",
    "neighborhood": "Brooklyn Heights",
    "latitude": 40.639745295786,
    "longitude": -73.967668576794,
    "phone": "3472405850",
    "grade": "A",
    "tags": [
      "clean",
      "highly-rated"
    ],
    "rating": 9.4,
    "rating_count": 308
  },
  {
    "name": "KASTHAMANDAP",
    "cuisine": [
      "Asian/Asian Fusion"
    ],
    "category": "restaurants",
    "price_range": "$$",
    "address": "65-14 ROOSEVELT AVENUE",
    "city": "New York",
    "state": "NY",
    "neighborhood": "Flushing",
    "latitude": 40.746084151958,
    "longitude": -73.898544800686,
    "phone": "3476124563",
    "grade": "A",
    "tags": [
      "clean",
      "highly-rated"
    ],
    "rating": 8.8,
    "rating_count": 107
  },
  {
    "name": "NAMASTAE BROOKLYN",
    "cuisine": [
      "Asian/Asian Fusion"
    ],
    "category": "restaurants",
    "price_range": "$$",
    "address": "1202 CORTELYOU ROAD",
    "city": "New York",
    "state": "NY",
    "neighborhood": "Brooklyn Heights",
    "latitude": 40.640090918027,
    "longitude": -73.966897321995,
    "phone": "3473653468",
    "grade": "A",
    "tags": [
      "clean",
      "highly-rated"
    ],
    "rating": 9.3,
    "rating_count": 193
  },
  {
    "name": "PICCOLI TRATTORIA",
    "cuisine": [
      "Italian"
    ],
    "category": "restaurants",
    "price_range": "$$$",
    "address": "522 6 AVENUE",
    "city": "New York",
    "state": "NY",
    "neighborhood": "Brooklyn Heights",
    "latitude": 40.665116304937,
    "longitude": -73.986385555555,
    "phone": "7187880066",
    "grade": "A",
    "tags": [
      "clean",
      "highly-rated"
    ],
    "rating": 8.9,
    "rating_count": 244
  },
  {
    "name": "LOFI BAR",
    "cuisine": [
      "American"
    ],
    "category": "restaurants",
    "price_range": "$$",
    "address": "304 5 AVENUE",
    "city": "New York",
    "state": "NY",
    "neighborhood": "Brooklyn Heights",
    "latitude": 40.673484636108,
    "longitude": -73.982717535686,
    "phone": "9177635653",
    "grade": "A",
    "tags": [
      "clean",
      "highly-rated"
    ],
    "rating": 8.3,
    "rating_count": 381
  },
  {
    "name": "THE ADIRONDACK",
    "cuisine": [
      "American"
    ],
    "category": "restaurants",
    "price_range": "$$",
    "address": "1241 PROSPECT AVENUE",
    "city": "New York",
    "state": "NY",
    "neighborhood": "Brooklyn Heights",
    "latitude": 40.652532539402,
    "longitude": -73.976026969165,
    "phone": "7188710100",
    "grade": "A",
    "tags": [
      "clean",
      "highly-rated"
    ],
    "rating": 9.2,
    "rating_count": 363
  },
  {
    "name": "WINDSOR CAFE",
    "cuisine": [
      "American"
    ],
    "category": "restaurants",
    "price_range": "$$",
    "address": "220 PROSPECT PARK WEST",
    "city": "New York",
    "state": "NY",
    "neighborhood": "DUMBO",
    "latitude": 40.660065088866,
    "longitude": -73.98065576663,
    "phone": "7187889700",
    "grade": null,
    "tags": [],
    "rating": 7.7,
    "rating_count": 97
  },
  {
    "name": "PANDA HARLEM",
    "cuisine": [
      "Asian/Asian Fusion"
    ],
    "category": "restaurants",
    "price_range": "$$",
    "address": "2331 12 AVENUE",
    "city": "New York",
    "state": "NY",
    "neighborhood": "Chelsea",
    "latitude": 40.820087205019,
    "longitude": -73.958790210368,
    "phone": "9176132058",
    "grade": "N",
    "tags": [],
    "rating": 5.9,
    "rating_count": 291
  },
  {
    "name": "BARCKLAYS PIZZA & PASTA",
    "cuisine": [
      "Pizza",
      "Italian"
    ],
    "category": "restaurants",
    "price_range": "$",
    "address": "916 FULTON STREET",
    "city": "New York",
    "state": "NY",
    "neighborhood": "Greenpoint",
    "latitude": 40.682930651701,
    "longitude": -73.964330468212,
    "phone": "7186387135",
    "grade": "A",
    "tags": [
      "clean",
      "highly-rated",
      "budget-friendly",
      "casual"
    ],
    "rating": 8.3,
    "rating_count": 384
  },
  {
    "name": "VERY JUICE",
    "cuisine": [
      "Kosher",
      "Jewish"
    ],
    "category": "restaurants",
    "price_range": "$$",
    "address": "1815 AVENUE M",
    "city": "New York",
    "state": "NY",
    "neighborhood": "Park Slope",
    "latitude": 40.618379016316,
    "longitude": -73.956678358932,
    "phone": "7189751212",
    "grade": null,
    "tags": [],
    "rating": 7.7,
    "rating_count": 497
  },
  {
    "name": "LINDA AZOGUENITA BAKERY & RESTAURANT",
    "cuisine": [
      "Latin American"
    ],
    "category": "restaurants",
    "price_range": "$$",
    "address": "51-01 108 STREET",
    "city": "New York",
    "state": "NY",
    "neighborhood": "Astoria",
    "latitude": 40.743844580831,
    "longitude": -73.855209602874,
    "phone": "7185920100",
    "grade": "Z",
    "tags": [],
    "rating": 5.8,
    "rating_count": 328
  },
  {
    "name": "FRENCH PASTRY HOUSE",
    "cuisine": [
      "Coffee/Tea"
    ],
    "category": "coffee_tea",
    "price_range": "$$",
    "address": "1701 AVENUE Z",
    "city": "New York",
    "state": "NY",
    "neighborhood": "Williamsburg",
    "latitude": 40.588190116436,
    "longitude": -73.952312733913,
    "phone": "5167707137",
    "grade": "N",
    "tags": [],
    "rating": 5.6,
    "rating_count": 138
  },
  {
    "name": "PAN",
    "cuisine": [
      "Pizza",
      "Italian"
    ],
    "category": "restaurants",
    "price_range": "$",
    "address": "1563 DECATUR STREET",
    "city": "New York",
    "state": "NY",
    "neighborhood": "Flushing",
    "latitude": 40.693871031848,
    "longitude": -73.90242902361,
    "phone": "7182192613",
    "grade": null,
    "tags": [
      "budget-friendly",
      "casual"
    ],
    "rating": 6.3,
    "rating_count": 86
  },
  {
    "name": "GOPCHANG STORY",
    "cuisine": [
      "Korean",
      "Asian"
    ],
    "category": "restaurants",
    "price_range": "$$",
    "address": "160-18 NORTHERN BOULEVARD",
    "city": "New York",
    "state": "NY",
    "neighborhood": "Flushing",
    "latitude": 40.76279193978,
    "longitude": -73.805279726945,
    "phone": "7186873001",
    "grade": "Z",
    "tags": [],
    "rating": 5.2,
    "rating_count": 281
  },
  {
    "name": "DANGOL",
    "cuisine": [
      "Korean",
      "Asian"
    ],
    "category": "restaurants",
    "price_range": "$$",
    "address": "160-30 NORTHERN BOULEVARD",
    "city": "New York",
    "state": "NY",
    "neighborhood": "Forest Hills",
    "latitude": 40.762767108374,
    "longitude": -73.805203992346,
    "phone": "7183534006",
    "grade": null,
    "tags": [],
    "rating": 5.9,
    "rating_count": 344
  },
  {
    "name": "DESI PIZZA",
    "cuisine": [
      "Indian",
      "Asian"
    ],
    "category": "restaurants",
    "price_range": "$$",
    "address": "111-03 101 AVENUE",
    "city": "New York",
    "state": "NY",
    "neighborhood": "Flushing",
    "latitude": 40.688083947106,
    "longitude": -73.832603681027,
    "phone": "3475676337",
    "grade": null,
    "tags": [],
    "rating": 5.2,
    "rating_count": 429
  },
  {
    "name": "NOODLE QUEEN",
    "cuisine": [
      "Chinese",
      "Asian"
    ],
    "category": "restaurants",
    "price_range": "$$",
    "address": "1705 86 STREET",
    "city": "New York",
    "state": "NY",
    "neighborhood": "Park Slope",
    "latitude": 40.60846471856,
    "longitude": -74.004631522632,
    "phone": "3472546330",
    "grade": null,
    "tags": [],
    "rating": 7.1,
    "rating_count": 212
  },
  {
    "name": "KINGSTON BAKE SHOP",
    "cuisine": [
      "Kosher",
      "Jewish"
    ],
    "category": "restaurants",
    "price_range": "$$",
    "address": "380 KINGSTON AVENUE",
    "city": "New York",
    "state": "NY",
    "neighborhood": "Williamsburg",
    "latitude": 40.665687352478,
    "longitude": -73.942553539686,
    "phone": "7184672047",
    "grade": "A",
    "tags": [
      "clean",
      "highly-rated"
    ],
    "rating": 8.2,
    "rating_count": 418
  },
  {
    "name": "KAI FENG FU DUMPLING HOUSE",
    "cuisine": [
      "Chinese",
      "Asian"
    ],
    "category": "restaurants",
    "price_range": "$$",
    "address": "4801 8 AVENUE",
    "city": "New York",
    "state": "NY",
    "neighborhood": "Williamsburg",
    "latitude": 40.642140533189,
    "longitude": -74.002623216731,
    "phone": "7184373542",
    "grade": null,
    "tags": [],
    "rating": 6.7,
    "rating_count": 164
  },
  {
    "name": "ELSA LA REINA DEL CHICHARRON",
    "cuisine": [
      "Latin American"
    ],
    "category": "restaurants",
    "price_range": "$$",
    "address": "4840 BROADWAY",
    "city": "New York",
    "state": "NY",
    "neighborhood": "Lower East Side",
    "latitude": 40.866423031683,
    "longitude": -73.924714032425,
    "phone": "2123041070",
    "grade": null,
    "tags": [],
    "rating": 6.9,
    "rating_count": 312
  },
  {
    "name": "CROWN ONE BANQUET",
    "cuisine": [
      "Chinese",
      "Asian"
    ],
    "category": "restaurants",
    "price_range": "$$",
    "address": "34-20 LINDEN PLACE",
    "city": "New York",
    "state": "NY",
    "neighborhood": "Forest Hills",
    "latitude": 40.766275126368,
    "longitude": -73.831337815549,
    "phone": "7187990568",
    "grade": "N",
    "tags": [],
    "rating": 5.3,
    "rating_count": 332
  },
  {
    "name": "STARBUCKS",
    "cuisine": [
      "Coffee/Tea"
    ],
    "category": "coffee_tea",
    "price_range": "$$",
    "address": "540 COLUMBUS AVENUE",
    "city": "New York",
    "state": "NY",
    "neighborhood": "Harlem",
    "latitude": 40.78658608086,
    "longitude": -73.972107344375,
    "phone": "2124964163",
    "grade": "A",
    "tags": [
      "clean",
      "highly-rated"
    ],
    "rating": 8.1,
    "rating_count": 491
  },
  {
    "name": "MUJI CAFE",
    "cuisine": [
      "Coffee/Tea"
    ],
    "category": "coffee_tea",
    "price_range": "$$",
    "address": "75 9 AVENUE",
    "city": "New York",
    "state": "NY",
    "neighborhood": "Financial District",
    "latitude": 40.741869040229,
    "longitude": -74.004713006739,
    "phone": "9492026125",
    "grade": "Z",
    "tags": [],
    "rating": 8.7,
    "rating_count": 253
  },
  {
    "name": "CHIPOTLE MEXICAN GRILL #2879",
    "cuisine": [
      "Tex-Mex"
    ],
    "category": "restaurants",
    "price_range": "$$",
    "address": "347 FLATBUSH AVENUE",
    "city": "New York",
    "state": "NY",
    "neighborhood": "Bushwick",
    "latitude": 40.677012381265,
    "longitude": -73.972330004501,
    "phone": "3032222524",
    "grade": "A",
    "tags": [
      "clean",
      "highly-rated"
    ],
    "rating": 9.3,
    "rating_count": 30
  },
  {
    "name": "ISLAND MIX",
    "cuisine": [
      "Middle Eastern",
      "Mediterranean"
    ],
    "category": "restaurants",
    "price_range": "$$",
    "address": "111-48 LEFFERTS BOULEVARD",
    "city": "New York",
    "state": "NY",
    "neighborhood": "Jackson Heights",
    "latitude": 40.680197478702,
    "longitude": -73.821223307209,
    "phone": "7184507056",
    "grade": null,
    "tags": [],
    "rating": 7,
    "rating_count": 341
  },
  {
    "name": "BILT BAR",
    "cuisine": [
      "American"
    ],
    "category": "restaurants",
    "price_range": "$$",
    "address": "583 VANDERBILT AVENUE",
    "city": "New York",
    "state": "NY",
    "neighborhood": "Williamsburg",
    "latitude": 40.680296723054,
    "longitude": -73.967901218163,
    "phone": "3472953579",
    "grade": "A",
    "tags": [
      "clean",
      "highly-rated"
    ],
    "rating": 9.2,
    "rating_count": 455
  },
  {
    "name": "BAGELS & BREW",
    "cuisine": [
      "American"
    ],
    "category": "restaurants",
    "price_range": "$$",
    "address": "43-05 BROADWAY",
    "city": "New York",
    "state": "NY",
    "neighborhood": "Jackson Heights",
    "latitude": 40.757780297565,
    "longitude": -73.916455807783,
    "phone": "7185454440",
    "grade": null,
    "tags": [],
    "rating": 6.6,
    "rating_count": 127
  },
  {
    "name": "Q102 POOL HALL AND LOUNGE",
    "cuisine": [
      "American"
    ],
    "category": "restaurants",
    "price_range": "$$",
    "address": "102-14 JAMAICA AVENUE",
    "city": "New York",
    "state": "NY",
    "neighborhood": "Flushing",
    "latitude": 40.695147337457,
    "longitude": -73.845084973278,
    "phone": "6462879162",
    "grade": "A",
    "tags": [
      "clean",
      "highly-rated"
    ],
    "rating": 8.8,
    "rating_count": 181
  },
  {
    "name": "BAYA BAR",
    "cuisine": [
      "Juice, Smoothies, Fruit Salads"
    ],
    "category": "restaurants",
    "price_range": "$$",
    "address": "64 LAFAYETTE AVENUE",
    "city": "New York",
    "state": "NY",
    "neighborhood": "Crown Heights",
    "latitude": 40.687094632588,
    "longitude": -73.975365458994,
    "phone": "9176209570",
    "grade": "Z",
    "tags": [],
    "rating": 7.2,
    "rating_count": 508
  },
  {
    "name": "ABE SUSHI",
    "cuisine": [
      "Japanese",
      "Asian"
    ],
    "category": "restaurants",
    "price_range": "$$$",
    "address": "7910A 13 AVENUE",
    "city": "New York",
    "state": "NY",
    "neighborhood": "Bushwick",
    "latitude": 40.617898207905,
    "longitude": -74.009937934547,
    "phone": "7188333888",
    "grade": null,
    "tags": [
      "fresh-fish"
    ],
    "rating": 6.7,
    "rating_count": 280
  },
  {
    "name": "BLEND ON THE WATER",
    "cuisine": [
      "Latin American"
    ],
    "category": "restaurants",
    "price_range": "$$",
    "address": "45-40 CENTER BOULEVARD",
    "city": "New York",
    "state": "NY",
    "neighborhood": "Flushing",
    "latitude": 40.748368839038,
    "longitude": -73.9568100475,
    "phone": "6465462675",
    "grade": "A",
    "tags": [
      "clean",
      "highly-rated"
    ],
    "rating": 8.4,
    "rating_count": 442
  },
  {
    "name": "CAFE BUREAU",
    "cuisine": [
      "Coffee/Tea"
    ],
    "category": "coffee_tea",
    "price_range": "$$",
    "address": "251 GRAND STREET",
    "city": "New York",
    "state": "NY",
    "neighborhood": "Greenpoint",
    "latitude": 40.713458868342,
    "longitude": -73.958715708816,
    "phone": "3012020967",
    "grade": "A",
    "tags": [
      "clean",
      "highly-rated"
    ],
    "rating": 8.9,
    "rating_count": 396
  }
]